{
   "type": "FeatureCollection",
   "features": [
  {
    "type": "Feature",
    "geometry": {
       "type": "Point",
       "coordinates":  [ 121.483955,25.13579 ]
    },
    "properties": {
    "id":"SOLAR_166",
    "label":"臺北大眾捷運股份有限公司"
    }
  },
  {
    "type": "Feature",
    "geometry": {
       "type": "Point",
       "coordinates":  [ 1213012.0,25.0129 ]
    },
    "properties": {
    "id":"SOLAR_908",
    "label":"臺北市立圖書館太陽分館"
    }
  },
  {
    "type": "Feature",
    "geometry": {
       "type": "Point",
       "coordinates":  [ 121.58768,25.00584 ]
    },
    "properties": {
    "id":"SOLAR_666",
    "label":"臺北市政府環境保護局"
    }
  },
  {
    "type": "Feature",
    "geometry": {
       "type": "Point",
       "coordinates":  [ 121.62082,25.05756 ]
    },
    "properties": {
    "id":"SOLAR_659",
    "label":"臺北大眾捷運股份有限公司"
    }
  },
  {
    "type": "Feature",
    "geometry": {
       "type": "Point",
       "coordinates":  [ 121.60087,25.05486 ]
    },
    "properties": {
    "id":"SOLAR_660",
    "label":"臺北市市場處"
    }
  },
  {
    "type": "Feature",
    "geometry": {
       "type": "Point",
       "coordinates":  [ 121.58101,24.998331 ]
    },
    "properties": {
    "id":"SOLAR_907",
    "label":"臺北市立動物園"
    }
  },
  {
    "type": "Feature",
    "geometry": {
       "type": "Point",
       "coordinates":  [ 121.49351,25.12152 ]
    },
    "properties": {
    "id":"SOLAR_662",
    "label":"臺北市政府環境保護局士林區清潔隊"
    }
  },
  {
    "type": "Feature",
    "geometry": {
       "type": "Point",
       "coordinates":  [ 121.52586,25.07236 ]
    },
    "properties": {
    "id":"SOLAR_661",
    "label":"臺北市政府工務局公園路燈工程管理處民族苗圃"
    }
  },
  {
    "type": "Feature",
    "geometry": {
       "type": "Point",
       "coordinates":  [ 121.5065,25.04761 ]
    },
    "properties": {
    "id":"SOLAR_158",
    "label":"臺北市政府體育局萬華運動中心"
    }
  },
  {
    "type": "Feature",
    "geometry": {
       "type": "Point",
       "coordinates":  [ 121.50293,25.132378 ]
    },
    "properties": {
    "id":"SOLAR_173",
    "label":"臺北市北投區公所行政中心"
    }
  },
  {
    "type": "Feature",
    "geometry": {
       "type": "Point",
       "coordinates":  [ 121.53084,25.071339 ]
    },
    "properties": {
    "id":"SOLAR_169",
    "label":"臺北市政府產業發展局"
    }
  },
  {
    "type": "Feature",
    "geometry": {
       "type": "Point",
       "coordinates":  [ 121.58,25.12 ]
    },
    "properties": {
    "id":"SOLAR_909",
    "label":"臺北市政府工務局大地工程處內雙溪自然中心"
    }
  },
  {
    "type": "Feature",
    "geometry": {
       "type": "Point",
       "coordinates":  [ 121.57849,25.031723 ]
    },
    "properties": {
    "id":"SOLAR_120",
    "label":"臺北市政府環境保護局信義清潔隊"
    }
  },
  {
    "type": "Feature",
    "geometry": {
       "type": "Point",
       "coordinates":  [ 121.53718,25.067446 ]
    },
    "properties": {
    "id":"SOLAR_147",
    "label":"臺北市市場處"
    }
  },
  {
    "type": "Feature",
    "geometry": {
       "type": "Point",
       "coordinates":  [ 25.03,121.56 ]
    },
    "properties": {
    "id":"SOLAR_915",
    "label":"臺北市政府都市發展局小彎社會住宅A棟"
    }
  },
  {
    "type": "Feature",
    "geometry": {
       "type": "Point",
       "coordinates":  [ 121.53001,25.01254 ]
    },
    "properties": {
    "id":"SOLAR_164",
    "label":"臺北自來水事業處公館淨水場"
    }
  },
  {
    "type": "Feature",
    "geometry": {
       "type": "Point",
       "coordinates":  [ 121.53586,25.000664 ]
    },
    "properties": {
    "id":"SOLAR_128",
    "label":"臺北市古亭地政事務所"
    }
  },
  {
    "type": "Feature",
    "geometry": {
       "type": "Point",
       "coordinates":  [ 121.547,25.06047 ]
    },
    "properties": {
    "id":"SOLAR_746",
    "label":"臺北市市場處"
    }
  },
  {
    "type": "Feature",
    "geometry": {
       "type": "Point",
       "coordinates":  [ 121.59473,25.05527 ]
    },
    "properties": {
    "id":"SOLAR_124",
    "label":"臺北市政府警察局南港分局"
    }
  },
  {
    "type": "Feature",
    "geometry": {
       "type": "Point",
       "coordinates":  [ 121.56398,25.05431 ]
    },
    "properties": {
    "id":"SOLAR_602",
    "label":"臺北市政府都市發展局"
    }
  },
  {
    "type": "Feature",
    "geometry": {
       "type": "Point",
       "coordinates":  [ 121.518265,25.096004 ]
    },
    "properties": {
    "id":"SOLAR_477",
    "label":"臺北市政府教育局天文科學教育館"
    }
  },
  {
    "type": "Feature",
    "geometry": {
       "type": "Point",
       "coordinates":  [ 121.52009,25.07322 ]
    },
    "properties": {
    "id":"SOLAR_912",
    "label":"臺北市政府都市發展局明倫社會住宅"
    }
  },
  {
    "type": "Feature",
    "geometry": {
       "type": "Point",
       "coordinates":  [ 121.58,25.03 ]
    },
    "properties": {
    "id":"SOLAR_913",
    "label":"臺北市政府都市發展局廣慈公宅"
    }
  },
  {
    "type": "Feature",
    "geometry": {
       "type": "Point",
       "coordinates":  [ 121.55845,25.027006 ]
    },
    "properties": {
    "id":"SOLAR_476",
    "label":"臺北市政府工務局公園路燈工程管理處"
    }
  },
  {
    "type": "Feature",
    "geometry": {
       "type": "Point",
       "coordinates":  [ 121.62465,25.03201 ]
    },
    "properties": {
    "id":"SOLAR_664",
    "label":"臺北市政府環境保護局山豬窟游泳池館"
    }
  },
  {
    "type": "Feature",
    "geometry": {
       "type": "Point",
       "coordinates":  [ 121.54405,25.021877 ]
    },
    "properties": {
    "id":"SOLAR_136",
    "label":"臺北市立圖書館道藩分館屋頂"
    }
  },
  {
    "type": "Feature",
    "geometry": {
       "type": "Point",
       "coordinates":  [ 121.57543,25.00104 ]
    },
    "properties": {
    "id":"SOLAR_665",
    "label":"臺北市政府環境保護局木柵垃圾焚化廠"
    }
  },
  {
    "type": "Feature",
    "geometry": {
       "type": "Point",
       "coordinates":  [ 121.60419,25.054783 ]
    },
    "properties": {
    "id":"SOLAR_473",
    "label":"臺北市政府都市發展局"
    }
  },
  {
    "type": "Feature",
    "geometry": {
       "type": "Point",
       "coordinates":  [ 25.03,121.56 ]
    },
    "properties": {
    "id":"SOLAR_914",
    "label":"臺北市政府都市發展局小彎社會住宅B棟"
    }
  },
  {
    "type": "Feature",
    "geometry": {
       "type": "Point",
       "coordinates":  [ 121.51525,25.059404 ]
    },
    "properties": {
    "id":"SOLAR_146",
    "label":"臺北市政府警察局大同分局"
    }
  },
  {
    "type": "Feature",
    "geometry": {
       "type": "Point",
       "coordinates":  [ 121.53506,25.06798 ]
    },
    "properties": {
    "id":"SOLAR_715",
    "label":"臺北市政府警察局建國派出所"
    }
  },
  {
    "type": "Feature",
    "geometry": {
       "type": "Point",
       "coordinates":  [ 121.61291,25.06746 ]
    },
    "properties": {
    "id":"SOLAR_716",
    "label":"臺北市政府消防局東湖分隊"
    }
  },
  {
    "type": "Feature",
    "geometry": {
       "type": "Point",
       "coordinates":  [ 121.52041,25.074203 ]
    },
    "properties": {
    "id":"SOLAR_170",
    "label":"臺北市政府產業發展局"
    }
  },
  {
    "type": "Feature",
    "geometry": {
       "type": "Point",
       "coordinates":  [ 121.56,25.03 ]
    },
    "properties": {
    "id":"SOLAR_919",
    "label":"臺北市政府都市發展局六張犁A棟社會住宅"
    }
  },
  {
    "type": "Feature",
    "geometry": {
       "type": "Point",
       "coordinates":  [ 25.03,121.56 ]
    },
    "properties": {
    "id":"SOLAR_918",
    "label":"臺北市政府都市發展局福星社宅"
    }
  },
  {
    "type": "Feature",
    "geometry": {
       "type": "Point",
       "coordinates":  [ 121.56,25.03 ]
    },
    "properties": {
    "id":"SOLAR_917",
    "label":"臺北市政府都市發展局新奇岩社宅"
    }
  },
  {
    "type": "Feature",
    "geometry": {
       "type": "Point",
       "coordinates":  [ 121.51102,25.03513 ]
    },
    "properties": {
    "id":"SOLAR_183",
    "label":"臺北市政府警察局交通大隊"
    }
  },
  {
    "type": "Feature",
    "geometry": {
       "type": "Point",
       "coordinates":  [ 121.51381,25.06124 ]
    },
    "properties": {
    "id":"SOLAR_627",
    "label":"臺北市政府警察局刑事警察大隊"
    }
  },
  {
    "type": "Feature",
    "geometry": {
       "type": "Point",
       "coordinates":  [ 121.51511,25.066261 ]
    },
    "properties": {
    "id":"SOLAR_175",
    "label":"臺北市大同區公所行政中心"
    }
  },
  {
    "type": "Feature",
    "geometry": {
       "type": "Point",
       "coordinates":  [ 121.54864,25.01483 ]
    },
    "properties": {
    "id":"SOLAR_144",
    "label":"臺北自來水事業處長興淨水廠"
    }
  },
  {
    "type": "Feature",
    "geometry": {
       "type": "Point",
       "coordinates":  [ 121.53431,25.02662 ]
    },
    "properties": {
    "id":"SOLAR_176",
    "label":"臺北市大安區公所行政中心"
    }
  },
  {
    "type": "Feature",
    "geometry": {
       "type": "Point",
       "coordinates":  [ 121.55936,25.058334 ]
    },
    "properties": {
    "id":"SOLAR_131",
    "label":"臺北市停車管理工程處民生立體停車場"
    }
  },
  {
    "type": "Feature",
    "geometry": {
       "type": "Point",
       "coordinates":  [ 121.53773,25.063742 ]
    },
    "properties": {
    "id":"SOLAR_137",
    "label":"臺北市勞動力重建運用處"
    }
  },
  {
    "type": "Feature",
    "geometry": {
       "type": "Point",
       "coordinates":  [ 121.59066,25.010021 ]
    },
    "properties": {
    "id":"SOLAR_117",
    "label":"臺北市政府環境保護局"
    }
  },
  {
    "type": "Feature",
    "geometry": {
       "type": "Point",
       "coordinates":  [ 121.53501,25.033335 ]
    },
    "properties": {
    "id":"SOLAR_567",
    "label":"臺北大眾捷運股份有限公司捷運大安森林公園站"
    }
  },
  {
    "type": "Feature",
    "geometry": {
       "type": "Point",
       "coordinates":  [ 121.568886,25.04086 ]
    },
    "properties": {
    "id":"SOLAR_129",
    "label":"臺北市政府消防局"
    }
  },
  {
    "type": "Feature",
    "geometry": {
       "type": "Point",
       "coordinates":  [ 121.57427,25.032188 ]
    },
    "properties": {
    "id":"SOLAR_134",
    "label":"臺北市公共運輸處"
    }
  },
  {
    "type": "Feature",
    "geometry": {
       "type": "Point",
       "coordinates":  [ 121.50587,25.048336 ]
    },
    "properties": {
    "id":"SOLAR_140",
    "label":"臺北市停車管理工程處洛陽立體停車場"
    }
  },
  {
    "type": "Feature",
    "geometry": {
       "type": "Point",
       "coordinates":  [ 121.56582,25.05449 ]
    },
    "properties": {
    "id":"SOLAR_603",
    "label":"臺北市政府都市發展局"
    }
  },
  {
    "type": "Feature",
    "geometry": {
       "type": "Point",
       "coordinates":  [ 121335.4,2536.0686 ]
    },
    "properties": {
    "id":"SOLAR_924",
    "label":"臺北大眾捷運股份有限公司(小巨蛋)"
    }
  },
  {
    "type": "Feature",
    "geometry": {
       "type": "Point",
       "coordinates":  [ 121.604454,25.054838 ]
    },
    "properties": {
    "id":"SOLAR_474",
    "label":"臺北市政府都市發展局"
    }
  },
  {
    "type": "Feature",
    "geometry": {
       "type": "Point",
       "coordinates":  [ 121.56,25.03 ]
    },
    "properties": {
    "id":"SOLAR_925",
    "label":"臺北市公共運輸處(信義新生路口站)"
    }
  },
  {
    "type": "Feature",
    "geometry": {
       "type": "Point",
       "coordinates":  [ 121.56,25.03 ]
    },
    "properties": {
    "id":"SOLAR_922",
    "label":"臺北市政府都市發展局福星社宅"
    }
  },
  {
    "type": "Feature",
    "geometry": {
       "type": "Point",
       "coordinates":  [ 121.56,25.03 ]
    },
    "properties": {
    "id":"SOLAR_923",
    "label":"臺北市政府都市發展局福星社宅"
    }
  },
  {
    "type": "Feature",
    "geometry": {
       "type": "Point",
       "coordinates":  [ 121.55927,24.997017 ]
    },
    "properties": {
    "id":"SOLAR_121",
    "label":"臺北市政府體育局文山運動中心"
    }
  },
  {
    "type": "Feature",
    "geometry": {
       "type": "Point",
       "coordinates":  [ 121.56768,25.0333 ]
    },
    "properties": {
    "id":"SOLAR_125",
    "label":"臺北市政府警察局信義分局"
    }
  },
  {
    "type": "Feature",
    "geometry": {
       "type": "Point",
       "coordinates":  [ 121.51943,25.08757 ]
    },
    "properties": {
    "id":"SOLAR_139",
    "label":"臺北市市場處頂好惠康超市(後港店)"
    }
  },
  {
    "type": "Feature",
    "geometry": {
       "type": "Point",
       "coordinates":  [ 121.537994,25.11481 ]
    },
    "properties": {
    "id":"SOLAR_181",
    "label":"臺北市職能發展學院"
    }
  },
  {
    "type": "Feature",
    "geometry": {
       "type": "Point",
       "coordinates":  [ 121.51957,25.092749 ]
    },
    "properties": {
    "id":"SOLAR_174",
    "label":"臺北市士林區公所"
    }
  },
  {
    "type": "Feature",
    "geometry": {
       "type": "Point",
       "coordinates":  [ 121.5293,25.112068 ]
    },
    "properties": {
    "id":"SOLAR_834",
    "label":"臺北市市場處士東市場"
    }
  },
  {
    "type": "Feature",
    "geometry": {
       "type": "Point",
       "coordinates":  [ 121.58101,24.998331 ]
    },
    "properties": {
    "id":"SOLAR_841",
    "label":"臺北市立動物園"
    }
  },
  {
    "type": "Feature",
    "geometry": {
       "type": "Point",
       "coordinates":  [ 121.51833,25.095833 ]
    },
    "properties": {
    "id":"SOLAR_135",
    "label":"臺北市政府教育局天文科學教育館"
    }
  },
  {
    "type": "Feature",
    "geometry": {
       "type": "Point",
       "coordinates":  [ 121.56,25.03 ]
    },
    "properties": {
    "id":"SOLAR_926",
    "label":"臺北市公共運輸處(仁愛新生路口站兩座)"
    }
  },
  {
    "type": "Feature",
    "geometry": {
       "type": "Point",
       "coordinates":  [ 121.56,25.03 ]
    },
    "properties": {
    "id":"SOLAR_927",
    "label":"臺北市政府產業發展局"
    }
  },
  {
    "type": "Feature",
    "geometry": {
       "type": "Point",
       "coordinates":  [ 121.58419,25.06636 ]
    },
    "properties": {
    "id":"SOLAR_118",
    "label":"臺北市政府環境保護局資源回收隊內湖回收場區"
    }
  },
  {
    "type": "Feature",
    "geometry": {
       "type": "Point",
       "coordinates":  [ 121.51806,25.071285 ]
    },
    "properties": {
    "id":"SOLAR_836",
    "label":"臺北市政府都市發展局大龍峒公營出租住宅"
    }
  },
  {
    "type": "Feature",
    "geometry": {
       "type": "Point",
       "coordinates":  [ 121.58368,25.066822 ]
    },
    "properties": {
    "id":"SOLAR_839",
    "label":"臺北市政府環境保護局內湖再生傢俱展示場"
    }
  },
  {
    "type": "Feature",
    "geometry": {
       "type": "Point",
       "coordinates":  [ 121.48381,25.134546 ]
    },
    "properties": {
    "id":"SOLAR_143",
    "label":"臺北大眾捷運股份有限公司北機廠"
    }
  },
  {
    "type": "Feature",
    "geometry": {
       "type": "Point",
       "coordinates":  [ 121.574104,25.063164 ]
    },
    "properties": {
    "id":"SOLAR_141",
    "label":"臺北市市場處"
    }
  },
  {
    "type": "Feature",
    "geometry": {
       "type": "Point",
       "coordinates":  [ 121.59066,25.010021 ]
    },
    "properties": {
    "id":"SOLAR_928",
    "label":"臺北市政府環境保護局"
    }
  },
  {
    "type": "Feature",
    "geometry": {
       "type": "Point",
       "coordinates":  [ 121.52262,25.113142 ]
    },
    "properties": {
    "id":"SOLAR_842",
    "label":"臺北市立圖書館石牌分館"
    }
  },
  {
    "type": "Feature",
    "geometry": {
       "type": "Point",
       "coordinates":  [ 121.59066,25.010021 ]
    },
    "properties": {
    "id":"SOLAR_929",
    "label":"臺北市政府環境保護局"
    }
  },
  {
    "type": "Feature",
    "geometry": {
       "type": "Point",
       "coordinates":  [ 121.59066,25.010021 ]
    },
    "properties": {
    "id":"SOLAR_930",
    "label":"臺北市政府環境保護局"
    }
  },
  {
    "type": "Feature",
    "geometry": {
       "type": "Point",
       "coordinates":  [ 121.51527,25.066193 ]
    },
    "properties": {
    "id":"SOLAR_123",
    "label":"臺北市大同區行政中心(蘭州市場)"
    }
  },
  {
    "type": "Feature",
    "geometry": {
       "type": "Point",
       "coordinates":  [ 121.57008,24.98964 ]
    },
    "properties": {
    "id":"SOLAR_163",
    "label":"臺北市文山區公所"
    }
  },
  {
    "type": "Feature",
    "geometry": {
       "type": "Point",
       "coordinates":  [ 121.55473,24.979984 ]
    },
    "properties": {
    "id":"SOLAR_184",
    "label":"臺北市政府消防局寶橋分隊"
    }
  },
  {
    "type": "Feature",
    "geometry": {
       "type": "Point",
       "coordinates":  [ 121.58101,24.998331 ]
    },
    "properties": {
    "id":"SOLAR_180",
    "label":"臺北市立動物園"
    }
  },
  {
    "type": "Feature",
    "geometry": {
       "type": "Point",
       "coordinates":  [ 121.55786,24.988297 ]
    },
    "properties": {
    "id":"SOLAR_179",
    "label":"臺北市政府都市發展局"
    }
  },
  {
    "type": "Feature",
    "geometry": {
       "type": "Point",
       "coordinates":  [ 121.56104,25.004578 ]
    },
    "properties": {
    "id":"SOLAR_172",
    "label":"臺北市政府公務人員訓練處"
    }
  },
  {
    "type": "Feature",
    "geometry": {
       "type": "Point",
       "coordinates":  [ 121.56,25.03 ]
    },
    "properties": {
    "id":"SOLAR_931",
    "label":"臺北市政府環境保護局內湖垃圾焚化廠"
    }
  },
  {
    "type": "Feature",
    "geometry": {
       "type": "Point",
       "coordinates":  [ 121.56,25.03 ]
    },
    "properties": {
    "id":"SOLAR_932",
    "label":"臺北市政府環境保護局北投垃圾焚化廠"
    }
  },
  {
    "type": "Feature",
    "geometry": {
       "type": "Point",
       "coordinates":  [ 121.559616,25.056904 ]
    },
    "properties": {
    "id":"SOLAR_149",
    "label":"臺北市政府警察局保安警察大隊"
    }
  },
  {
    "type": "Feature",
    "geometry": {
       "type": "Point",
       "coordinates":  [ 121.62499,25.02913 ]
    },
    "properties": {
    "id":"SOLAR_933",
    "label":"臺北市政府環境保護局山水綠生態公園"
    }
  },
  {
    "type": "Feature",
    "geometry": {
       "type": "Point",
       "coordinates":  [ 121.58768,25.00584 ]
    },
    "properties": {
    "id":"SOLAR_934",
    "label":"臺北市政府環境保護局木柵垃圾焚化廠"
    }
  },
  {
    "type": "Feature",
    "geometry": {
       "type": "Point",
       "coordinates":  [ 121.57436,25.06639 ]
    },
    "properties": {
    "id":"SOLAR_840",
    "label":"臺北市政府工務局衛生下水道工程處"
    }
  },
  {
    "type": "Feature",
    "geometry": {
       "type": "Point",
       "coordinates":  [ 121.51965,25.09355 ]
    },
    "properties": {
    "id":"SOLAR_617",
    "label":"臺北市士林區公所"
    }
  },
  {
    "type": "Feature",
    "geometry": {
       "type": "Point",
       "coordinates":  [ 121.56883,25.02432 ]
    },
    "properties": {
    "id":"SOLAR_616",
    "label":"臺北市立圖書館六合分館"
    }
  },
  {
    "type": "Feature",
    "geometry": {
       "type": "Point",
       "coordinates":  [ 121.56,25.03 ]
    },
    "properties": {
    "id":"SOLAR_920",
    "label":"臺北市政府都市發展局六張犁B1棟社會住宅"
    }
  },
  {
    "type": "Feature",
    "geometry": {
       "type": "Point",
       "coordinates":  [ 121.49963,25.03863 ]
    },
    "properties": {
    "id":"SOLAR_615",
    "label":"臺北市政府警察局萬華分局"
    }
  },
  {
    "type": "Feature",
    "geometry": {
       "type": "Point",
       "coordinates":  [ 121.5814,25.03863 ]
    },
    "properties": {
    "id":"SOLAR_610",
    "label":"臺北市政府都市發展局廣慈社宅"
    }
  },
  {
    "type": "Feature",
    "geometry": {
       "type": "Point",
       "coordinates":  [ 121.5814,25.03863 ]
    },
    "properties": {
    "id":"SOLAR_611",
    "label":"臺北市政府都市發展局廣慈社宅"
    }
  },
  {
    "type": "Feature",
    "geometry": {
       "type": "Point",
       "coordinates":  [ 121.56,25.03 ]
    },
    "properties": {
    "id":"SOLAR_916",
    "label":"臺北市政府都市發展局青年社會住宅二期"
    }
  },
  {
    "type": "Feature",
    "geometry": {
       "type": "Point",
       "coordinates":  [ 121.56,25.03 ]
    },
    "properties": {
    "id":"SOLAR_921",
    "label":"臺北市政府都市發展局六張犁B1棟社會住宅"
    }
  },
  {
    "type": "Feature",
    "geometry": {
       "type": "Point",
       "coordinates":  [ 121.62499,25.02913 ]
    },
    "properties": {
    "id":"SOLAR_843",
    "label":"臺北市政府環境保護局山水綠生態公園"
    }
  },
  {
    "type": "Feature",
    "geometry": {
       "type": "Point",
       "coordinates":  [ 121.58205,25.06071 ]
    },
    "properties": {
    "id":"SOLAR_791",
    "label":"臺北市政府都市發展局"
    }
  },
  {
    "type": "Feature",
    "geometry": {
       "type": "Point",
       "coordinates":  [ 121.61603,25.048689 ]
    },
    "properties": {
    "id":"SOLAR_789",
    "label":"臺北自來水事業處南港加壓站"
    }
  },
  {
    "type": "Feature",
    "geometry": {
       "type": "Point",
       "coordinates":  [ 121.57911,25.07351 ]
    },
    "properties": {
    "id":"SOLAR_788",
    "label":"臺北市政府都市發展局瑞光社會住宅"
    }
  },
  {
    "type": "Feature",
    "geometry": {
       "type": "Point",
       "coordinates":  [ 121.58768,25.00584 ]
    },
    "properties": {
    "id":"SOLAR_663",
    "label":"臺北市政府環境保護局"
    }
  },
  {
    "type": "Feature",
    "geometry": {
       "type": "Point",
       "coordinates":  [ 121.57913,25.07343 ]
    },
    "properties": {
    "id":"SOLAR_787",
    "label":"臺北市政府都市發展局瑞光社會住宅"
    }
  },
  {
    "type": "Feature",
    "geometry": {
       "type": "Point",
       "coordinates":  [ 121.56,25.03 ]
    },
    "properties": {
    "id":"SOLAR_935",
    "label":"臺北市政府警察局大同分局重慶派出所"
    }
  },
  {
    "type": "Feature",
    "geometry": {
       "type": "Point",
       "coordinates":  [ 121.54614,25.13651 ]
    },
    "properties": {
    "id":"SOLAR_796",
    "label":"臺北市政府社會局陽明老人公寓"
    }
  },
  {
    "type": "Feature",
    "geometry": {
       "type": "Point",
       "coordinates":  [ 121.56944,25.079382 ]
    },
    "properties": {
    "id":"SOLAR_799",
    "label":"臺北市停車管理工程處洲子立體停車場"
    }
  },
  {
    "type": "Feature",
    "geometry": {
       "type": "Point",
       "coordinates":  [ 121.58169,25.06029 ]
    },
    "properties": {
    "id":"SOLAR_790",
    "label":"臺北市政府都市發展局"
    }
  },
  {
    "type": "Feature",
    "geometry": {
       "type": "Point",
       "coordinates":  [ 121.5842,25.00079 ]
    },
    "properties": {
    "id":"SOLAR_669",
    "label":"臺北大眾捷運股份有限公司"
    }
  },
  {
    "type": "Feature",
    "geometry": {
       "type": "Point",
       "coordinates":  [ 121.56651,25.00008 ]
    },
    "properties": {
    "id":"SOLAR_800",
    "label":"臺北市政府秘書處(檔案室)"
    }
  },
  {
    "type": "Feature",
    "geometry": {
       "type": "Point",
       "coordinates":  [ 121.56,25.03 ]
    },
    "properties": {
    "id":"SOLAR_936",
    "label":"臺北市政府警察局大同分局重慶派出所"
    }
  },
  {
    "type": "Feature",
    "geometry": {
       "type": "Point",
       "coordinates":  [ 121.57653,25.0674 ]
    },
    "properties": {
    "id":"SOLAR_670",
    "label":"臺北市公共運輸處"
    }
  },
  {
    "type": "Feature",
    "geometry": {
       "type": "Point",
       "coordinates":  [ 121.57652,25.06739 ]
    },
    "properties": {
    "id":"SOLAR_618",
    "label":"臺北市公共運輸處"
    }
  },
  {
    "type": "Feature",
    "geometry": {
       "type": "Point",
       "coordinates":  [ 121.57899,25.06658 ]
    },
    "properties": {
    "id":"SOLAR_683",
    "label":"臺北市政府警察局文德派出所"
    }
  },
  {
    "type": "Feature",
    "geometry": {
       "type": "Point",
       "coordinates":  [ 121.58203,25.03876 ]
    },
    "properties": {
    "id":"SOLAR_778",
    "label":"臺北市政府都市發展局廣慈公宅"
    }
  },
  {
    "type": "Feature",
    "geometry": {
       "type": "Point",
       "coordinates":  [ 121.54407,25.10105 ]
    },
    "properties": {
    "id":"SOLAR_167",
    "label":"臺北市政府社會局至善老人安養護中心"
    }
  },
  {
    "type": "Feature",
    "geometry": {
       "type": "Point",
       "coordinates":  [ 121.54864,25.01483 ]
    },
    "properties": {
    "id":"SOLAR_937",
    "label":"臺北自來水事業處行政大樓"
    }
  },
  {
    "type": "Feature",
    "geometry": {
       "type": "Point",
       "coordinates":  [ 121.3448,24.5433 ]
    },
    "properties": {
    "id":"SOLAR_939",
    "label":"臺北市政府翡翠水庫管理局"
    }
  },
  {
    "type": "Feature",
    "geometry": {
       "type": "Point",
       "coordinates":  [ 121.58832,24.96917 ]
    },
    "properties": {
    "id":"SOLAR_684",
    "label":"臺北大眾捷運股份有限公司"
    }
  },
  {
    "type": "Feature",
    "geometry": {
       "type": "Point",
       "coordinates":  [ 121.55466,25.05917 ]
    },
    "properties": {
    "id":"SOLAR_761",
    "label":"臺北自來水事業處東區營業分處"
    }
  },
  {
    "type": "Feature",
    "geometry": {
       "type": "Point",
       "coordinates":  [ 121.55804,24.988071 ]
    },
    "properties": {
    "id":"SOLAR_178",
    "label":"臺北市政府都市發展局"
    }
  },
  {
    "type": "Feature",
    "geometry": {
       "type": "Point",
       "coordinates":  [ 121.52009,25.07322 ]
    },
    "properties": {
    "id":"SOLAR_760",
    "label":"臺北市政府都市發展局明倫社會住宅"
    }
  },
  {
    "type": "Feature",
    "geometry": {
       "type": "Point",
       "coordinates":  [ 121.3448,24.5433 ]
    },
    "properties": {
    "id":"SOLAR_941",
    "label":"臺北市政府翡翠水庫管理局"
    }
  },
  {
    "type": "Feature",
    "geometry": {
       "type": "Point",
       "coordinates":  [ 121.3448,24.5433 ]
    },
    "properties": {
    "id":"SOLAR_938",
    "label":"臺北市政府翡翠水庫管理局"
    }
  },
  {
    "type": "Feature",
    "geometry": {
       "type": "Point",
       "coordinates":  [ 121.3448,24.5433 ]
    },
    "properties": {
    "id":"SOLAR_942",
    "label":"臺北市政府翡翠水庫管理局"
    }
  },
  {
    "type": "Feature",
    "geometry": {
       "type": "Point",
       "coordinates":  [ 121.3448,24.5433 ]
    },
    "properties": {
    "id":"SOLAR_940",
    "label":"臺北市政府翡翠水庫管理局"
    }
  },
  {
    "type": "Feature",
    "geometry": {
       "type": "Point",
       "coordinates":  [ 121.54745,24.999926 ]
    },
    "properties": {
    "id":"SOLAR_161",
    "label":"臺北市市場處"
    }
  },
  {
    "type": "Feature",
    "geometry": {
       "type": "Point",
       "coordinates":  [ 121.5882,24.968914 ]
    },
    "properties": {
    "id":"SOLAR_165",
    "label":"臺北市公共運輸處"
    }
  },
  {
    "type": "Feature",
    "geometry": {
       "type": "Point",
       "coordinates":  [ 121.60642,25.05628 ]
    },
    "properties": {
    "id":"SOLAR_132",
    "label":"臺北市停車管理工程處興中立體停車場"
    }
  },
  {
    "type": "Feature",
    "geometry": {
       "type": "Point",
       "coordinates":  [ 121.3448,24.5433 ]
    },
    "properties": {
    "id":"SOLAR_957",
    "label":"臺北市政府翡翠水庫管理局"
    }
  },
  {
    "type": "Feature",
    "geometry": {
       "type": "Point",
       "coordinates":  [ 121.3448,24.5433 ]
    },
    "properties": {
    "id":"SOLAR_950",
    "label":"臺北市政府翡翠水庫管理局"
    }
  },
  {
    "type": "Feature",
    "geometry": {
       "type": "Point",
       "coordinates":  [ 121.3448,24.5433 ]
    },
    "properties": {
    "id":"SOLAR_951",
    "label":"臺北市政府翡翠水庫管理局"
    }
  },
  {
    "type": "Feature",
    "geometry": {
       "type": "Point",
       "coordinates":  [ 121.3448,24.5433 ]
    },
    "properties": {
    "id":"SOLAR_955",
    "label":"臺北市政府翡翠水庫管理局"
    }
  },
  {
    "type": "Feature",
    "geometry": {
       "type": "Point",
       "coordinates":  [ 121.3448,24.5433 ]
    },
    "properties": {
    "id":"SOLAR_947",
    "label":"臺北市政府翡翠水庫管理局"
    }
  },
  {
    "type": "Feature",
    "geometry": {
       "type": "Point",
       "coordinates":  [ 121.3448,24.5433 ]
    },
    "properties": {
    "id":"SOLAR_953",
    "label":"臺北市政府翡翠水庫管理局"
    }
  },
  {
    "type": "Feature",
    "geometry": {
       "type": "Point",
       "coordinates":  [ 121.3448,24.5433 ]
    },
    "properties": {
    "id":"SOLAR_948",
    "label":"臺北市政府翡翠水庫管理局"
    }
  },
  {
    "type": "Feature",
    "geometry": {
       "type": "Point",
       "coordinates":  [ 121.3448,24.5433 ]
    },
    "properties": {
    "id":"SOLAR_952",
    "label":"臺北市政府翡翠水庫管理局"
    }
  },
  {
    "type": "Feature",
    "geometry": {
       "type": "Point",
       "coordinates":  [ 121.3448,24.5433 ]
    },
    "properties": {
    "id":"SOLAR_944",
    "label":"臺北市政府翡翠水庫管理局"
    }
  },
  {
    "type": "Feature",
    "geometry": {
       "type": "Point",
       "coordinates":  [ 121.3448,24.5433 ]
    },
    "properties": {
    "id":"SOLAR_956",
    "label":"臺北市政府翡翠水庫管理局"
    }
  },
  {
    "type": "Feature",
    "geometry": {
       "type": "Point",
       "coordinates":  [ 121.3448,24.5433 ]
    },
    "properties": {
    "id":"SOLAR_949",
    "label":"臺北市政府翡翠水庫管理局"
    }
  },
  {
    "type": "Feature",
    "geometry": {
       "type": "Point",
       "coordinates":  [ 121.3448,24.5433 ]
    },
    "properties": {
    "id":"SOLAR_945",
    "label":"臺北市政府翡翠水庫管理局"
    }
  },
  {
    "type": "Feature",
    "geometry": {
       "type": "Point",
       "coordinates":  [ 121.3448,24.5433 ]
    },
    "properties": {
    "id":"SOLAR_954",
    "label":"臺北市政府翡翠水庫管理局"
    }
  },
  {
    "type": "Feature",
    "geometry": {
       "type": "Point",
       "coordinates":  [ 121.3448,24.5433 ]
    },
    "properties": {
    "id":"SOLAR_946",
    "label":"臺北市政府翡翠水庫管理局"
    }
  },
  {
    "type": "Feature",
    "geometry": {
       "type": "Point",
       "coordinates":  [ 121.3448,24.5433 ]
    },
    "properties": {
    "id":"SOLAR_943",
    "label":"臺北市政府翡翠水庫管理局"
    }
  },
  {
    "type": "Feature",
    "geometry": {
       "type": "Point",
       "coordinates":  [ 121.50557,25.044138 ]
    },
    "properties": {
    "id":"SOLAR_133",
    "label":"臺北市停車管理工程處峨嵋立體停車場"
    }
  },
  {
    "type": "Feature",
    "geometry": {
       "type": "Point",
       "coordinates":  [ 121.563995,25.03753 ]
    },
    "properties": {
    "id":"SOLAR_958",
    "label":"臺北市政府水利工程處"
    }
  },
  {
    "type": "Feature",
    "geometry": {
       "type": "Point",
       "coordinates":  [ 25.055805,121.52108 ]
    },
    "properties": {
    "id":"SOLAR_960",
    "label":"臺北大眾捷運股份有限公司"
    }
  },
  {
    "type": "Feature",
    "geometry": {
       "type": "Point",
       "coordinates":  [ 121.57427,25.032188 ]
    },
    "properties": {
    "id":"SOLAR_961",
    "label":"臺北市交通管制工程處"
    }
  },
  {
    "type": "Feature",
    "geometry": {
       "type": "Point",
       "coordinates":  [ 121.57427,25.032188 ]
    },
    "properties": {
    "id":"SOLAR_962",
    "label":"臺北市交通管制工程處"
    }
  },
  {
    "type": "Feature",
    "geometry": {
       "type": "Point",
       "coordinates":  [ 121.57427,25.032188 ]
    },
    "properties": {
    "id":"SOLAR_963",
    "label":"臺北市政府工務局停車管理工程處"
    }
  },
  {
    "type": "Feature",
    "geometry": {
       "type": "Point",
       "coordinates":  [ 121.563995,25.03753 ]
    },
    "properties": {
    "id":"SOLAR_959",
    "label":"臺北市政府水利工程處"
    }
  },
  {
    "type": "Feature",
    "geometry": {
       "type": "Point",
       "coordinates":  [ 121.61911,25.0429 ]
    },
    "properties": {
    "id":"SOLAR_614",
    "label":"臺北市政府都市發展局中南社會住宅"
    }
  },
  {
    "type": "Feature",
    "geometry": {
       "type": "Point",
       "coordinates":  [ 121.506195,25.136497 ]
    },
    "properties": {
    "id":"SOLAR_154",
    "label":"臺北市立圖書館北投分館"
    }
  },
  {
    "type": "Feature",
    "geometry": {
       "type": "Point",
       "coordinates":  [ 121.54134,25.134872 ]
    },
    "properties": {
    "id":"SOLAR_126",
    "label":"臺北市立陽明教養院"
    }
  },
  {
    "type": "Feature",
    "geometry": {
       "type": "Point",
       "coordinates":  [ 121.5814,25.03863 ]
    },
    "properties": {
    "id":"SOLAR_612",
    "label":"臺北市政府都市發展局廣慈社宅"
    }
  },
  {
    "type": "Feature",
    "geometry": {
       "type": "Point",
       "coordinates":  [ 121.563995,25.03753 ]
    },
    "properties": {
    "id":"SOLAR_159",
    "label":"臺北市市政大樓公共事務管理中心"
    }
  },
  {
    "type": "Feature",
    "geometry": {
       "type": "Point",
       "coordinates":  [ 121.53996,25.004671 ]
    },
    "properties": {
    "id":"SOLAR_145",
    "label":"臺北市市場處"
    }
  },
  {
    "type": "Feature",
    "geometry": {
       "type": "Point",
       "coordinates":  [ 121.52446,25.03796 ]
    },
    "properties": {
    "id":"SOLAR_1197",
    "label":"臺北市政府水利工程處"
    }
  },
  {
    "type": "Feature",
    "geometry": {
       "type": "Point",
       "coordinates":  [ 121.5648,25.03808 ]
    },
    "properties": {
    "id":"SOLAR_1198",
    "label":"臺北市政府水利工程處"
    }
  },
  {
    "type": "Feature",
    "geometry": {
       "type": "Point",
       "coordinates":  [ 121.52427,25.03218 ]
    },
    "properties": {
    "id":"SOLAR_1200",
    "label":"臺北市公共運輸處"
    }
  },
  {
    "type": "Feature",
    "geometry": {
       "type": "Point",
       "coordinates":  [ 121.52424,25.03222 ]
    },
    "properties": {
    "id":"SOLAR_1201",
    "label":"臺北市公共運輸處"
    }
  },
  {
    "type": "Feature",
    "geometry": {
       "type": "Point",
       "coordinates":  [ 121.53184,25.0715 ]
    },
    "properties": {
    "id":"SOLAR_168",
    "label":"臺北市政府產業發展局"
    }
  },
  {
    "type": "Feature",
    "geometry": {
       "type": "Point",
       "coordinates":  [ 121.52424,25.03222 ]
    },
    "properties": {
    "id":"SOLAR_1202",
    "label":"臺北市公共運輸處"
    }
  },
  {
    "type": "Feature",
    "geometry": {
       "type": "Point",
       "coordinates":  [ 121.57424,25.03222 ]
    },
    "properties": {
    "id":"SOLAR_1203",
    "label":"臺北市公共運輸處"
    }
  },
  {
    "type": "Feature",
    "geometry": {
       "type": "Point",
       "coordinates":  [ 121.51224,25.09937 ]
    },
    "properties": {
    "id":"SOLAR_475",
    "label":"臺北市政府工務局水利工程處(洲美抽水站)"
    }
  },
  {
    "type": "Feature",
    "geometry": {
       "type": "Point",
       "coordinates":  [ 121.529144,25.071386 ]
    },
    "properties": {
    "id":"SOLAR_127",
    "label":"臺北市政府工務局水利工程處"
    }
  },
  {
    "type": "Feature",
    "geometry": {
       "type": "Point",
       "coordinates":  [ 121.51086,25.09977 ]
    },
    "properties": {
    "id":"SOLAR_142",
    "label":"臺北市政府工務局水利工程處洲美抽水站"
    }
  },
  {
    "type": "Feature",
    "geometry": {
       "type": "Point",
       "coordinates":  [ 121.53641,25.010563 ]
    },
    "properties": {
    "id":"SOLAR_130",
    "label":"臺北市政府工務局衛生下水道工程處"
    }
  },
  {
    "type": "Feature",
    "geometry": {
       "type": "Point",
       "coordinates":  [ 121.53718,25.067446 ]
    },
    "properties": {
    "id":"SOLAR_148",
    "label":"臺北市市場處"
    }
  },
  {
    "type": "Feature",
    "geometry": {
       "type": "Point",
       "coordinates":  [ 121.52427,25.03218 ]
    },
    "properties": {
    "id":"SOLAR_1199",
    "label":"臺北市公共運輸處"
    }
  },
  {
    "type": "Feature",
    "geometry": {
       "type": "Point",
       "coordinates":  [ 121.53555,25.031061 ]
    },
    "properties": {
    "id":"SOLAR_837",
    "label":"臺北市政府工務局公園路燈工程管理處"
    }
  },
  {
    "type": "Feature",
    "geometry": {
       "type": "Point",
       "coordinates":  [ 121.58507,25.00067 ]
    },
    "properties": {
    "id":"SOLAR_682",
    "label":"臺北市政府工務局公園路燈工程管理處"
    }
  },
  {
    "type": "Feature",
    "geometry": {
       "type": "Point",
       "coordinates":  [ 121.54,25.03 ]
    },
    "properties": {
    "id":"SOLAR_910",
    "label":"臺北市政府工務局公園路燈工程管理處"
    }
  },
  {
    "type": "Feature",
    "geometry": {
       "type": "Point",
       "coordinates":  [ 121.56289,25.052944 ]
    },
    "properties": {
    "id":"SOLAR_511",
    "label":"臺北市松山區西松國民小學"
    }
  },
  {
    "type": "Feature",
    "geometry": {
       "type": "Point",
       "coordinates":  [ 121.5404,24.9895 ]
    },
    "properties": {
    "id":"SOLAR_518",
    "label":"臺北市文山區景美國民小學"
    }
  },
  {
    "type": "Feature",
    "geometry": {
       "type": "Point",
       "coordinates":  [ 121.523056,25.038942 ]
    },
    "properties": {
    "id":"SOLAR_649",
    "label":"臺北市中正區東門國民小學"
    }
  },
  {
    "type": "Feature",
    "geometry": {
       "type": "Point",
       "coordinates":  [ 121.534966,25.116724 ]
    },
    "properties": {
    "id":"SOLAR_905",
    "label":"臺北市立啟明學校"
    }
  },
  {
    "type": "Feature",
    "geometry": {
       "type": "Point",
       "coordinates":  [ 121.5249,25.0933 ]
    },
    "properties": {
    "id":"SOLAR_971",
    "label":"臺北市士林區士林國民小學"
    }
  },
  {
    "type": "Feature",
    "geometry": {
       "type": "Point",
       "coordinates":  [ 121.52996,25.105183 ]
    },
    "properties": {
    "id":"SOLAR_972",
    "label":"臺北市士林區雨農國民小學"
    }
  },
  {
    "type": "Feature",
    "geometry": {
       "type": "Point",
       "coordinates":  [ 121.50003,25.133982 ]
    },
    "properties": {
    "id":"SOLAR_973",
    "label":"臺北市士林區陽明山國民小學"
    }
  },
  {
    "type": "Feature",
    "geometry": {
       "type": "Point",
       "coordinates":  [ 121.50716,25.08409 ]
    },
    "properties": {
    "id":"SOLAR_974",
    "label":"臺北市士林區葫蘆國民小學"
    }
  },
  {
    "type": "Feature",
    "geometry": {
       "type": "Point",
       "coordinates":  [ 121.51345,25.064335 ]
    },
    "properties": {
    "id":"SOLAR_975",
    "label":"臺北市大同區大橋國民小學"
    }
  },
  {
    "type": "Feature",
    "geometry": {
       "type": "Point",
       "coordinates":  [ 121.52369,25.042624 ]
    },
    "properties": {
    "id":"SOLAR_37",
    "label":"臺北市成功高級中學"
    }
  },
  {
    "type": "Feature",
    "geometry": {
       "type": "Point",
       "coordinates":  [ 121.55003,25.01995 ]
    },
    "properties": {
    "id":"SOLAR_976",
    "label":"臺北市大安區大安國民小學"
    }
  },
  {
    "type": "Feature",
    "geometry": {
       "type": "Point",
       "coordinates":  [ 121.50226,25.143143 ]
    },
    "properties": {
    "id":"SOLAR_906",
    "label":"臺北市立復興高級中學"
    }
  },
  {
    "type": "Feature",
    "geometry": {
       "type": "Point",
       "coordinates":  [ 121.5114,25.06138 ]
    },
    "properties": {
    "id":"SOLAR_502",
    "label":"臺北市大同區太平國民小學"
    }
  },
  {
    "type": "Feature",
    "geometry": {
       "type": "Point",
       "coordinates":  [ 121.55602,24.98072 ]
    },
    "properties": {
    "id":"SOLAR_1016",
    "label":"臺北市立景美女子高級中學"
    }
  },
  {
    "type": "Feature",
    "geometry": {
       "type": "Point",
       "coordinates":  [ 121.5068,25.13841 ]
    },
    "properties": {
    "id":"SOLAR_1017",
    "label":"臺北市立新民國民中學"
    }
  },
  {
    "type": "Feature",
    "geometry": {
       "type": "Point",
       "coordinates":  [ 121.61924,25.053436 ]
    },
    "properties": {
    "id":"SOLAR_1018",
    "label":"臺北市立誠正國民中學"
    }
  },
  {
    "type": "Feature",
    "geometry": {
       "type": "Point",
       "coordinates":  [ 121.53717,25.11583 ]
    },
    "properties": {
    "id":"SOLAR_574",
    "label":"臺北市立臺北特殊教育學校"
    }
  },
  {
    "type": "Feature",
    "geometry": {
       "type": "Point",
       "coordinates":  [ 121.57861,25.050673 ]
    },
    "properties": {
    "id":"SOLAR_572",
    "label":"臺北市松山區松山國民小學"
    }
  },
  {
    "type": "Feature",
    "geometry": {
       "type": "Point",
       "coordinates":  [ 121.49305,25.03113 ]
    },
    "properties": {
    "id":"SOLAR_576",
    "label":"臺北市萬華區大理國民小學"
    }
  },
  {
    "type": "Feature",
    "geometry": {
       "type": "Point",
       "coordinates":  [ 121.57598,25.12891 ]
    },
    "properties": {
    "id":"SOLAR_573",
    "label":"臺北市士林區平等國民小學"
    }
  },
  {
    "type": "Feature",
    "geometry": {
       "type": "Point",
       "coordinates":  [ 121.5667,25.05555 ]
    },
    "properties": {
    "id":"SOLAR_105",
    "label":"臺北市立西松高級中學"
    }
  },
  {
    "type": "Feature",
    "geometry": {
       "type": "Point",
       "coordinates":  [ 121.50884,25.046812 ]
    },
    "properties": {
    "id":"SOLAR_19",
    "label":"臺北市萬華區福星國民小學(三)"
    }
  },
  {
    "type": "Feature",
    "geometry": {
       "type": "Point",
       "coordinates":  [ 121.522,25.03236 ]
    },
    "properties": {
    "id":"SOLAR_94",
    "label":"臺北市中正國民中學"
    }
  },
  {
    "type": "Feature",
    "geometry": {
       "type": "Point",
       "coordinates":  [ 121.5657,25.08383 ]
    },
    "properties": {
    "id":"SOLAR_56",
    "label":"臺北市內湖區西湖國民小學"
    }
  },
  {
    "type": "Feature",
    "geometry": {
       "type": "Point",
       "coordinates":  [ 121.55559,25.10361 ]
    },
    "properties": {
    "id":"SOLAR_568",
    "label":"臺北市立至善國民中學"
    }
  },
  {
    "type": "Feature",
    "geometry": {
       "type": "Point",
       "coordinates":  [ 121.5364,25.07375 ]
    },
    "properties": {
    "id":"SOLAR_977",
    "label":"臺北市中山區大佳國民小學"
    }
  },
  {
    "type": "Feature",
    "geometry": {
       "type": "Point",
       "coordinates":  [ 121.5364,25.07375 ]
    },
    "properties": {
    "id":"SOLAR_44",
    "label":"臺北市中山區大佳國民小學"
    }
  },
  {
    "type": "Feature",
    "geometry": {
       "type": "Point",
       "coordinates":  [ 121.5485,24.99622 ]
    },
    "properties": {
    "id":"SOLAR_53",
    "label":"臺北市景興國民小學"
    }
  },
  {
    "type": "Feature",
    "geometry": {
       "type": "Point",
       "coordinates":  [ 121.5508,25.0374 ]
    },
    "properties": {
    "id":"SOLAR_555",
    "label":"臺北市立仁愛國民中學"
    }
  },
  {
    "type": "Feature",
    "geometry": {
       "type": "Point",
       "coordinates":  [ 121.54042,25.04048 ]
    },
    "properties": {
    "id":"SOLAR_1019",
    "label":"臺北市立懷生國民中學"
    }
  },
  {
    "type": "Feature",
    "geometry": {
       "type": "Point",
       "coordinates":  [ 121.56318,25.031567 ]
    },
    "properties": {
    "id":"SOLAR_1027",
    "label":"臺北市信義區信義國民小學"
    }
  },
  {
    "type": "Feature",
    "geometry": {
       "type": "Point",
       "coordinates":  [ 121.53347,25.064362 ]
    },
    "properties": {
    "id":"SOLAR_978",
    "label":"臺北市中山區大直國民小學"
    }
  },
  {
    "type": "Feature",
    "geometry": {
       "type": "Point",
       "coordinates":  [ 121.59463,25.05369 ]
    },
    "properties": {
    "id":"SOLAR_1028",
    "label":"臺北市南港區玉成國民小學"
    }
  },
  {
    "type": "Feature",
    "geometry": {
       "type": "Point",
       "coordinates":  [ 121.536674,25.005243 ]
    },
    "properties": {
    "id":"SOLAR_1030",
    "label":"臺北市文山區萬福國民小學"
    }
  },
  {
    "type": "Feature",
    "geometry": {
       "type": "Point",
       "coordinates":  [ 121.53634,25.11075 ]
    },
    "properties": {
    "id":"SOLAR_571",
    "label":"臺北市士林區芝山國民小學"
    }
  },
  {
    "type": "Feature",
    "geometry": {
       "type": "Point",
       "coordinates":  [ 121.49879,25.02911 ]
    },
    "properties": {
    "id":"SOLAR_28",
    "label":"臺北市立萬華國民中學"
    }
  },
  {
    "type": "Feature",
    "geometry": {
       "type": "Point",
       "coordinates":  [ 121.57579,25.001966 ]
    },
    "properties": {
    "id":"SOLAR_512",
    "label":"臺北市博嘉實驗國民小學"
    }
  },
  {
    "type": "Feature",
    "geometry": {
       "type": "Point",
       "coordinates":  [ 121.6172,25.04239 ]
    },
    "properties": {
    "id":"SOLAR_61",
    "label":"臺北市南港區胡適國民小學"
    }
  },
  {
    "type": "Feature",
    "geometry": {
       "type": "Point",
       "coordinates":  [ 121.467636,25.11996 ]
    },
    "properties": {
    "id":"SOLAR_472",
    "label":"臺北市立關渡國民中學"
    }
  },
  {
    "type": "Feature",
    "geometry": {
       "type": "Point",
       "coordinates":  [ 121.5167,25.06952 ]
    },
    "properties": {
    "id":"SOLAR_501",
    "label":"臺北市立蘭州國民中學"
    }
  },
  {
    "type": "Feature",
    "geometry": {
       "type": "Point",
       "coordinates":  [ 121.5805,25.03502 ]
    },
    "properties": {
    "id":"SOLAR_1020",
    "label":"臺北市立松山高級商業家事職業學校"
    }
  },
  {
    "type": "Feature",
    "geometry": {
       "type": "Point",
       "coordinates":  [ 121.522514,25.023182 ]
    },
    "properties": {
    "id":"SOLAR_979",
    "label":"臺北市中正區河堤國民小學"
    }
  },
  {
    "type": "Feature",
    "geometry": {
       "type": "Point",
       "coordinates":  [ 121.50911,25.03516 ]
    },
    "properties": {
    "id":"SOLAR_980",
    "label":"臺北市中正區南門國民小學"
    }
  },
  {
    "type": "Feature",
    "geometry": {
       "type": "Point",
       "coordinates":  [ 121.5144,25.02514 ]
    },
    "properties": {
    "id":"SOLAR_981",
    "label":"臺北市中正區螢橋國民小學"
    }
  },
  {
    "type": "Feature",
    "geometry": {
       "type": "Point",
       "coordinates":  [ 121.5805,25.03502 ]
    },
    "properties": {
    "id":"SOLAR_1021",
    "label":"臺北市立松山高級商業家事職業學校"
    }
  },
  {
    "type": "Feature",
    "geometry": {
       "type": "Point",
       "coordinates":  [ 121.4845,25.1397 ]
    },
    "properties": {
    "id":"SOLAR_95",
    "label":"臺北市北投區桃源國民小學"
    }
  },
  {
    "type": "Feature",
    "geometry": {
       "type": "Point",
       "coordinates":  [ 121.52751,25.113022 ]
    },
    "properties": {
    "id":"SOLAR_545",
    "label":"臺北市士林區士東國民小學"
    }
  },
  {
    "type": "Feature",
    "geometry": {
       "type": "Point",
       "coordinates":  [ 121.5766,24.99043 ]
    },
    "properties": {
    "id":"SOLAR_83",
    "label":"臺北市文山區萬興國民小學"
    }
  },
  {
    "type": "Feature",
    "geometry": {
       "type": "Point",
       "coordinates":  [ 121.523346,25.09452 ]
    },
    "properties": {
    "id":"SOLAR_547",
    "label":"臺北市立士林國民中學"
    }
  },
  {
    "type": "Feature",
    "geometry": {
       "type": "Point",
       "coordinates":  [ 121.505035,25.119293 ]
    },
    "properties": {
    "id":"SOLAR_546",
    "label":"臺北市北投區立農國民小學"
    }
  },
  {
    "type": "Feature",
    "geometry": {
       "type": "Point",
       "coordinates":  [ 121.5877,25.04502 ]
    },
    "properties": {
    "id":"SOLAR_100",
    "label":"臺北市立成德國民中學"
    }
  },
  {
    "type": "Feature",
    "geometry": {
       "type": "Point",
       "coordinates":  [ 121.5643,25.06335 ]
    },
    "properties": {
    "id":"SOLAR_1022",
    "label":"臺北市松山區三民國民小學"
    }
  },
  {
    "type": "Feature",
    "geometry": {
       "type": "Point",
       "coordinates":  [ 121.51278,25.066938 ]
    },
    "properties": {
    "id":"SOLAR_549",
    "label":"臺北市大同區延平國民小學"
    }
  },
  {
    "type": "Feature",
    "geometry": {
       "type": "Point",
       "coordinates":  [ 121.54173,25.063953 ]
    },
    "properties": {
    "id":"SOLAR_551",
    "label":"臺北市中山區五常國民小學"
    }
  },
  {
    "type": "Feature",
    "geometry": {
       "type": "Point",
       "coordinates":  [ 121.5375,25.04891 ]
    },
    "properties": {
    "id":"SOLAR_85",
    "label":"臺北市立中山女子高級中學"
    }
  },
  {
    "type": "Feature",
    "geometry": {
       "type": "Point",
       "coordinates":  [ 121.5503,25.01875 ]
    },
    "properties": {
    "id":"SOLAR_87",
    "label":"臺北市立芳和實驗國民中學"
    }
  },
  {
    "type": "Feature",
    "geometry": {
       "type": "Point",
       "coordinates":  [ 121.58041,25.079668 ]
    },
    "properties": {
    "id":"SOLAR_982",
    "label":"臺北市內湖區內湖國民小學"
    }
  },
  {
    "type": "Feature",
    "geometry": {
       "type": "Point",
       "coordinates":  [ 121.523,25.08706 ]
    },
    "properties": {
    "id":"SOLAR_112",
    "label":"臺北市立百齡高級中學"
    }
  },
  {
    "type": "Feature",
    "geometry": {
       "type": "Point",
       "coordinates":  [ 121.54854,25.049173 ]
    },
    "properties": {
    "id":"SOLAR_1023",
    "label":"臺北市松山區敦化國民小學"
    }
  },
  {
    "type": "Feature",
    "geometry": {
       "type": "Point",
       "coordinates":  [ 121.5144,25.02514 ]
    },
    "properties": {
    "id":"SOLAR_43",
    "label":"臺北市中正區螢橋國民小學"
    }
  },
  {
    "type": "Feature",
    "geometry": {
       "type": "Point",
       "coordinates":  [ 121.55562,24.9887 ]
    },
    "properties": {
    "id":"SOLAR_691",
    "label":"臺北市文山區永建國民小學"
    }
  },
  {
    "type": "Feature",
    "geometry": {
       "type": "Point",
       "coordinates":  [ 121.55754,24.98364 ]
    },
    "properties": {
    "id":"SOLAR_695",
    "label":"臺北市文山區實踐國民小學"
    }
  },
  {
    "type": "Feature",
    "geometry": {
       "type": "Point",
       "coordinates":  [ 121.5091,25.03527 ]
    },
    "properties": {
    "id":"SOLAR_78",
    "label":"臺北市立南門國民中學"
    }
  },
  {
    "type": "Feature",
    "geometry": {
       "type": "Point",
       "coordinates":  [ 121.51901,25.10792 ]
    },
    "properties": {
    "id":"SOLAR_704",
    "label":"臺北市立明德國民中學"
    }
  },
  {
    "type": "Feature",
    "geometry": {
       "type": "Point",
       "coordinates":  [ 121.53185,25.04937 ]
    },
    "properties": {
    "id":"SOLAR_723",
    "label":"臺北市立長安國民中學"
    }
  },
  {
    "type": "Feature",
    "geometry": {
       "type": "Point",
       "coordinates":  [ 121.53832,25.02347 ]
    },
    "properties": {
    "id":"SOLAR_718",
    "label":"臺北市立龍門國民中學"
    }
  },
  {
    "type": "Feature",
    "geometry": {
       "type": "Point",
       "coordinates":  [ 121.5628,25.05659 ]
    },
    "properties": {
    "id":"SOLAR_46",
    "label":"臺北市松山區健康國民小學"
    }
  },
  {
    "type": "Feature",
    "geometry": {
       "type": "Point",
       "coordinates":  [ 121.51174,25.115742 ]
    },
    "properties": {
    "id":"SOLAR_36",
    "label":"臺北市北投區石牌國民小學"
    }
  },
  {
    "type": "Feature",
    "geometry": {
       "type": "Point",
       "coordinates":  [ 121.51356,25.03842 ]
    },
    "properties": {
    "id":"SOLAR_719",
    "label":"臺北市立第一女子高級中學"
    }
  },
  {
    "type": "Feature",
    "geometry": {
       "type": "Point",
       "coordinates":  [ 121.51717,25.09232 ]
    },
    "properties": {
    "id":"SOLAR_703",
    "label":"臺北市立陽明高級中學"
    }
  },
  {
    "type": "Feature",
    "geometry": {
       "type": "Point",
       "coordinates":  [ 121.54042,25.04048 ]
    },
    "properties": {
    "id":"SOLAR_658",
    "label":"臺北市立懷生國民中學"
    }
  },
  {
    "type": "Feature",
    "geometry": {
       "type": "Point",
       "coordinates":  [ 121.5258,25.06198 ]
    },
    "properties": {
    "id":"SOLAR_82",
    "label":"臺北市新興國民中學"
    }
  },
  {
    "type": "Feature",
    "geometry": {
       "type": "Point",
       "coordinates":  [ 121.53488,25.023922 ]
    },
    "properties": {
    "id":"SOLAR_47",
    "label":"臺北市大安區龍安國民小學"
    }
  },
  {
    "type": "Feature",
    "geometry": {
       "type": "Point",
       "coordinates":  [ 121.5634,24.98927 ]
    },
    "properties": {
    "id":"SOLAR_54",
    "label":"臺北市文山特殊教育學校"
    }
  },
  {
    "type": "Feature",
    "geometry": {
       "type": "Point",
       "coordinates":  [ 121.516136,25.064873 ]
    },
    "properties": {
    "id":"SOLAR_34",
    "label":"臺北市大同區大同國民小學"
    }
  },
  {
    "type": "Feature",
    "geometry": {
       "type": "Point",
       "coordinates":  [ 121.5462,25.02936 ]
    },
    "properties": {
    "id":"SOLAR_70",
    "label":"臺北市大安區建安國民小學"
    }
  },
  {
    "type": "Feature",
    "geometry": {
       "type": "Point",
       "coordinates":  [ 121.5467,25.05157 ]
    },
    "properties": {
    "id":"SOLAR_96",
    "label":"臺北市立敦化國民中學"
    }
  },
  {
    "type": "Feature",
    "geometry": {
       "type": "Point",
       "coordinates":  [ 121.5333,25.02967 ]
    },
    "properties": {
    "id":"SOLAR_55",
    "label":"臺北市大安區新生國民小學"
    }
  },
  {
    "type": "Feature",
    "geometry": {
       "type": "Point",
       "coordinates":  [ 121.57575,25.08206 ]
    },
    "properties": {
    "id":"SOLAR_676",
    "label":"臺北市立麗山國民中學"
    }
  },
  {
    "type": "Feature",
    "geometry": {
       "type": "Point",
       "coordinates":  [ 121.4976,25.02967 ]
    },
    "properties": {
    "id":"SOLAR_45",
    "label":"臺北市立南海實驗幼兒園"
    }
  },
  {
    "type": "Feature",
    "geometry": {
       "type": "Point",
       "coordinates":  [ 121.5623,25.06239 ]
    },
    "properties": {
    "id":"SOLAR_68",
    "label":"臺北市松山區民權國民小學"
    }
  },
  {
    "type": "Feature",
    "geometry": {
       "type": "Point",
       "coordinates":  [ 121.4988,25.02911 ]
    },
    "properties": {
    "id":"SOLAR_108",
    "label":"臺北市立萬華國民中學"
    }
  },
  {
    "type": "Feature",
    "geometry": {
       "type": "Point",
       "coordinates":  [ 121.5504,25.01953 ]
    },
    "properties": {
    "id":"SOLAR_101",
    "label":"臺北市大安區大安國民小學"
    }
  },
  {
    "type": "Feature",
    "geometry": {
       "type": "Point",
       "coordinates":  [ 121.491,25.03397 ]
    },
    "properties": {
    "id":"SOLAR_63",
    "label":"臺北市萬華區華江國民小學"
    }
  },
  {
    "type": "Feature",
    "geometry": {
       "type": "Point",
       "coordinates":  [ 121.5721,25.03963 ]
    },
    "properties": {
    "id":"SOLAR_80",
    "label":"臺北市立松山高級工農職業學校"
    }
  },
  {
    "type": "Feature",
    "geometry": {
       "type": "Point",
       "coordinates":  [ 121.6093,25.0586 ]
    },
    "properties": {
    "id":"SOLAR_74",
    "label":"臺北市育成高級中學"
    }
  },
  {
    "type": "Feature",
    "geometry": {
       "type": "Point",
       "coordinates":  [ 121.5583,25.02947 ]
    },
    "properties": {
    "id":"SOLAR_59",
    "label":"臺北市信義區三興國民小學"
    }
  },
  {
    "type": "Feature",
    "geometry": {
       "type": "Point",
       "coordinates":  [ 121.57002,25.047152 ]
    },
    "properties": {
    "id":"SOLAR_50",
    "label":"臺北市信義區興雅國民小學"
    }
  },
  {
    "type": "Feature",
    "geometry": {
       "type": "Point",
       "coordinates":  [ 121.57002,25.047152 ]
    },
    "properties": {
    "id":"SOLAR_4",
    "label":"臺北市信義區興雅國民小學"
    }
  },
  {
    "type": "Feature",
    "geometry": {
       "type": "Point",
       "coordinates":  [ 121.5589,24.99983 ]
    },
    "properties": {
    "id":"SOLAR_69",
    "label":"臺北市興華國民小學"
    }
  },
  {
    "type": "Feature",
    "geometry": {
       "type": "Point",
       "coordinates":  [ 121.5216,25.09965 ]
    },
    "properties": {
    "id":"SOLAR_8",
    "label":"臺北市士林區文昌國民小學"
    }
  },
  {
    "type": "Feature",
    "geometry": {
       "type": "Point",
       "coordinates":  [ 121.5382,25.11807 ]
    },
    "properties": {
    "id":"SOLAR_109",
    "label":"臺北市天母國民中學"
    }
  },
  {
    "type": "Feature",
    "geometry": {
       "type": "Point",
       "coordinates":  [ 121.4824,25.10587 ]
    },
    "properties": {
    "id":"SOLAR_66",
    "label":"臺北市士林區富安國民小學"
    }
  },
  {
    "type": "Feature",
    "geometry": {
       "type": "Point",
       "coordinates":  [ 121.585434,25.03713 ]
    },
    "properties": {
    "id":"SOLAR_644",
    "label":"臺北市立瑠公國民中學"
    }
  },
  {
    "type": "Feature",
    "geometry": {
       "type": "Point",
       "coordinates":  [ 121.58001,25.119946 ]
    },
    "properties": {
    "id":"SOLAR_2",
    "label":"臺北市士林區溪山國民小學"
    }
  },
  {
    "type": "Feature",
    "geometry": {
       "type": "Point",
       "coordinates":  [ 121.5885,25.06823 ]
    },
    "properties": {
    "id":"SOLAR_983",
    "label":"臺北市內湖區新湖國民小學"
    }
  },
  {
    "type": "Feature",
    "geometry": {
       "type": "Point",
       "coordinates":  [ 121.589,25.069664 ]
    },
    "properties": {
    "id":"SOLAR_984",
    "label":"臺北市內湖區麗山國民小學"
    }
  },
  {
    "type": "Feature",
    "geometry": {
       "type": "Point",
       "coordinates":  [ 121.4986,25.03082 ]
    },
    "properties": {
    "id":"SOLAR_52",
    "label":"臺北市萬華區雙園國民小學"
    }
  },
  {
    "type": "Feature",
    "geometry": {
       "type": "Point",
       "coordinates":  [ 121.53544,25.149652 ]
    },
    "properties": {
    "id":"SOLAR_9",
    "label":"臺北市湖山國民小學"
    }
  },
  {
    "type": "Feature",
    "geometry": {
       "type": "Point",
       "coordinates":  [ 121.5148,25.10591 ]
    },
    "properties": {
    "id":"SOLAR_81",
    "label":"臺北市北投區文林國民小學"
    }
  },
  {
    "type": "Feature",
    "geometry": {
       "type": "Point",
       "coordinates":  [ 121.5249,25.0933 ]
    },
    "properties": {
    "id":"SOLAR_57",
    "label":"\t 臺北市士林區士林國民小學"
    }
  },
  {
    "type": "Feature",
    "geometry": {
       "type": "Point",
       "coordinates":  [ 121.528015,25.032059 ]
    },
    "properties": {
    "id":"SOLAR_650",
    "label":"臺北市大安區金華國民小學"
    }
  },
  {
    "type": "Feature",
    "geometry": {
       "type": "Point",
       "coordinates":  [ 121.60114,25.072992 ]
    },
    "properties": {
    "id":"SOLAR_42",
    "label":"臺北市內湖區麗湖國民小學"
    }
  },
  {
    "type": "Feature",
    "geometry": {
       "type": "Point",
       "coordinates":  [ 121.6113,25.06819 ]
    },
    "properties": {
    "id":"SOLAR_64",
    "label":"臺北市內湖區南湖國民小學"
    }
  },
  {
    "type": "Feature",
    "geometry": {
       "type": "Point",
       "coordinates":  [ 121.5885,25.06823 ]
    },
    "properties": {
    "id":"SOLAR_93",
    "label":"臺北市內湖區新湖國民小學"
    }
  },
  {
    "type": "Feature",
    "geometry": {
       "type": "Point",
       "coordinates":  [ 121.5864,25.06915 ]
    },
    "properties": {
    "id":"SOLAR_103",
    "label":"臺北市立三民國民中學"
    }
  },
  {
    "type": "Feature",
    "geometry": {
       "type": "Point",
       "coordinates":  [ 121.6105,25.06646 ]
    },
    "properties": {
    "id":"SOLAR_89",
    "label":"臺北市立南湖高級中學"
    }
  },
  {
    "type": "Feature",
    "geometry": {
       "type": "Point",
       "coordinates":  [ 121.57211,24.99692 ]
    },
    "properties": {
    "id":"SOLAR_854",
    "label":"臺北市立木柵高級工業職業學校"
    }
  },
  {
    "type": "Feature",
    "geometry": {
       "type": "Point",
       "coordinates":  [ 121.5353,25.10306 ]
    },
    "properties": {
    "id":"SOLAR_504",
    "label":"臺北市士林區雨聲國民小學"
    }
  },
  {
    "type": "Feature",
    "geometry": {
       "type": "Point",
       "coordinates":  [ 121.6101,25.05745 ]
    },
    "properties": {
    "id":"SOLAR_73",
    "label":"臺北市南港國民小學"
    }
  },
  {
    "type": "Feature",
    "geometry": {
       "type": "Point",
       "coordinates":  [ 121.5163,25.06027 ]
    },
    "properties": {
    "id":"SOLAR_599",
    "label":"臺北市大同區雙蓮國民小學"
    }
  },
  {
    "type": "Feature",
    "geometry": {
       "type": "Point",
       "coordinates":  [ 121.57014,24.99027 ]
    },
    "properties": {
    "id":"SOLAR_814",
    "label":"臺北市文山區木柵國民小學"
    }
  },
  {
    "type": "Feature",
    "geometry": {
       "type": "Point",
       "coordinates":  [ 121.5364,25.11075 ]
    },
    "properties": {
    "id":"SOLAR_855",
    "label":"臺北市士林區芝山國民小學"
    }
  },
  {
    "type": "Feature",
    "geometry": {
       "type": "Point",
       "coordinates":  [ 121.5163,25.06027 ]
    },
    "properties": {
    "id":"SOLAR_856",
    "label":"臺北市大同區雙蓮國民小學"
    }
  },
  {
    "type": "Feature",
    "geometry": {
       "type": "Point",
       "coordinates":  [ 121.56114,25.077892 ]
    },
    "properties": {
    "id":"SOLAR_859",
    "label":"臺北市中山區濱江國民小學"
    }
  },
  {
    "type": "Feature",
    "geometry": {
       "type": "Point",
       "coordinates":  [ 121.5519,25.00248 ]
    },
    "properties": {
    "id":"SOLAR_72",
    "label":"臺北市文山區興隆國民小學"
    }
  },
  {
    "type": "Feature",
    "geometry": {
       "type": "Point",
       "coordinates":  [ 121.6011,25.08777 ]
    },
    "properties": {
    "id":"SOLAR_858",
    "label":"臺北市內湖區大湖國民小學"
    }
  },
  {
    "type": "Feature",
    "geometry": {
       "type": "Point",
       "coordinates":  [ 121.5264,25.06365 ]
    },
    "properties": {
    "id":"SOLAR_860",
    "label":"臺北市中山區中山國民小學"
    }
  },
  {
    "type": "Feature",
    "geometry": {
       "type": "Point",
       "coordinates":  [ 121.54534,24.9873 ]
    },
    "properties": {
    "id":"SOLAR_862",
    "label":"臺北市文山區永建國民小學"
    }
  },
  {
    "type": "Feature",
    "geometry": {
       "type": "Point",
       "coordinates":  [ 121.562805,24.987392 ]
    },
    "properties": {
    "id":"SOLAR_985",
    "label":"臺北市文山區明道國民小學"
    }
  },
  {
    "type": "Feature",
    "geometry": {
       "type": "Point",
       "coordinates":  [ 121.54854,25.049173 ]
    },
    "properties": {
    "id":"SOLAR_1024",
    "label":"臺北市松山區敦化國民小學"
    }
  },
  {
    "type": "Feature",
    "geometry": {
       "type": "Point",
       "coordinates":  [ 121.54854,25.049173 ]
    },
    "properties": {
    "id":"SOLAR_1025",
    "label":"臺北市松山區敦化國民小學"
    }
  },
  {
    "type": "Feature",
    "geometry": {
       "type": "Point",
       "coordinates":  [ 121.5485,24.99622 ]
    },
    "properties": {
    "id":"SOLAR_986",
    "label":"臺北市文山區景興國民小學"
    }
  },
  {
    "type": "Feature",
    "geometry": {
       "type": "Point",
       "coordinates":  [ 121.5592,25.00643 ]
    },
    "properties": {
    "id":"SOLAR_97",
    "label":"臺北市文山區辛亥國民小學"
    }
  },
  {
    "type": "Feature",
    "geometry": {
       "type": "Point",
       "coordinates":  [ 121.505035,25.119293 ]
    },
    "properties": {
    "id":"SOLAR_864",
    "label":"臺北市北投區立農國民小學"
    }
  },
  {
    "type": "Feature",
    "geometry": {
       "type": "Point",
       "coordinates":  [ 121.53011,25.054895 ]
    },
    "properties": {
    "id":"SOLAR_600",
    "label":"臺北市中山區吉林國民小學"
    }
  },
  {
    "type": "Feature",
    "geometry": {
       "type": "Point",
       "coordinates":  [ 121.5548,24.98343 ]
    },
    "properties": {
    "id":"SOLAR_91",
    "label":"臺北市實踐國民中學"
    }
  },
  {
    "type": "Feature",
    "geometry": {
       "type": "Point",
       "coordinates":  [ 121.5375,25.04851 ]
    },
    "properties": {
    "id":"SOLAR_866",
    "label":"臺北市立中山女子高級中學"
    }
  },
  {
    "type": "Feature",
    "geometry": {
       "type": "Point",
       "coordinates":  [ 121.5375,25.04851 ]
    },
    "properties": {
    "id":"SOLAR_867",
    "label":"臺北市立中山女子高級中學"
    }
  },
  {
    "type": "Feature",
    "geometry": {
       "type": "Point",
       "coordinates":  [ 121.5216,25.09965 ]
    },
    "properties": {
    "id":"SOLAR_863",
    "label":"臺北市士林區文昌國民小學"
    }
  },
  {
    "type": "Feature",
    "geometry": {
       "type": "Point",
       "coordinates":  [ 121.526955,25.06367 ]
    },
    "properties": {
    "id":"SOLAR_643",
    "label":"臺北市中山區中山國民小學"
    }
  },
  {
    "type": "Feature",
    "geometry": {
       "type": "Point",
       "coordinates":  [ 121.56753,25.001247 ]
    },
    "properties": {
    "id":"SOLAR_987",
    "label":"臺北市文山區萬芳國民小學"
    }
  },
  {
    "type": "Feature",
    "geometry": {
       "type": "Point",
       "coordinates":  [ 121.57223,25.0364 ]
    },
    "properties": {
    "id":"SOLAR_639",
    "label":"臺北市立興雅國民中學"
    }
  },
  {
    "type": "Feature",
    "geometry": {
       "type": "Point",
       "coordinates":  [ 121.51646,25.0544 ]
    },
    "properties": {
    "id":"SOLAR_648",
    "label":"臺北市大同區日新國民小學"
    }
  },
  {
    "type": "Feature",
    "geometry": {
       "type": "Point",
       "coordinates":  [ 121.56114,25.077892 ]
    },
    "properties": {
    "id":"SOLAR_548",
    "label":"臺北市中山區濱江國民小學"
    }
  },
  {
    "type": "Feature",
    "geometry": {
       "type": "Point",
       "coordinates":  [ 121.5229,25.10842 ]
    },
    "properties": {
    "id":"SOLAR_102",
    "label":"臺北市士林區蘭雅國民小學"
    }
  },
  {
    "type": "Feature",
    "geometry": {
       "type": "Point",
       "coordinates":  [ 121.54551,25.0608 ]
    },
    "properties": {
    "id":"SOLAR_869",
    "label":"臺北市立中山國民中學"
    }
  },
  {
    "type": "Feature",
    "geometry": {
       "type": "Point",
       "coordinates":  [ 121.5519,25.00248 ]
    },
    "properties": {
    "id":"SOLAR_988",
    "label":"臺北市文山區興隆國民小學"
    }
  },
  {
    "type": "Feature",
    "geometry": {
       "type": "Point",
       "coordinates":  [ 121.55817,25.04021 ]
    },
    "properties": {
    "id":"SOLAR_634",
    "label":"臺北市信義區光復國民小學"
    }
  },
  {
    "type": "Feature",
    "geometry": {
       "type": "Point",
       "coordinates":  [ 121.58667,25.03853 ]
    },
    "properties": {
    "id":"SOLAR_633",
    "label":"臺北市信義區福德國民小學"
    }
  },
  {
    "type": "Feature",
    "geometry": {
       "type": "Point",
       "coordinates":  [ 121.523544,25.042349 ]
    },
    "properties": {
    "id":"SOLAR_645",
    "label":"臺北市立成功高級中學"
    }
  },
  {
    "type": "Feature",
    "geometry": {
       "type": "Point",
       "coordinates":  [ 121.5323,25.0309 ]
    },
    "properties": {
    "id":"SOLAR_629",
    "label":"臺北市立金華國民中學"
    }
  },
  {
    "type": "Feature",
    "geometry": {
       "type": "Point",
       "coordinates":  [ 121.5122,25.03092 ]
    },
    "properties": {
    "id":"SOLAR_654",
    "label":"臺北市立建國高級中學"
    }
  },
  {
    "type": "Feature",
    "geometry": {
       "type": "Point",
       "coordinates":  [ 121.51869,25.08591 ]
    },
    "properties": {
    "id":"SOLAR_632",
    "label":"臺北市士林區百齡國民小學"
    }
  },
  {
    "type": "Feature",
    "geometry": {
       "type": "Point",
       "coordinates":  [ 121.577896,25.084118 ]
    },
    "properties": {
    "id":"SOLAR_3",
    "label":"臺北市立麗山高級中學"
    }
  },
  {
    "type": "Feature",
    "geometry": {
       "type": "Point",
       "coordinates":  [ 121.5556,25.10364 ]
    },
    "properties": {
    "id":"SOLAR_870",
    "label":"臺北市立至善國民中學"
    }
  },
  {
    "type": "Feature",
    "geometry": {
       "type": "Point",
       "coordinates":  [ 121.51174,25.115742 ]
    },
    "properties": {
    "id":"SOLAR_989",
    "label":"臺北市北投區石牌國民小學"
    }
  },
  {
    "type": "Feature",
    "geometry": {
       "type": "Point",
       "coordinates":  [ 121.50728,25.05117 ]
    },
    "properties": {
    "id":"SOLAR_873",
    "label":"臺北市立忠孝國民中學"
    }
  },
  {
    "type": "Feature",
    "geometry": {
       "type": "Point",
       "coordinates":  [ 121.50728,25.05117 ]
    },
    "properties": {
    "id":"SOLAR_872",
    "label":"臺北市立忠孝國民中學"
    }
  },
  {
    "type": "Feature",
    "geometry": {
       "type": "Point",
       "coordinates":  [ 121.5615,25.04912 ]
    },
    "properties": {
    "id":"SOLAR_79",
    "label":"臺北市中崙高級中學"
    }
  },
  {
    "type": "Feature",
    "geometry": {
       "type": "Point",
       "coordinates":  [ 121.6073,25.05634 ]
    },
    "properties": {
    "id":"SOLAR_606",
    "label":"臺北市立南港高級工業職業學校"
    }
  },
  {
    "type": "Feature",
    "geometry": {
       "type": "Point",
       "coordinates":  [ 121.50138,25.13242 ]
    },
    "properties": {
    "id":"SOLAR_990",
    "label":"臺北市北投區清江國民小學"
    }
  },
  {
    "type": "Feature",
    "geometry": {
       "type": "Point",
       "coordinates":  [ 121.505,25.1384 ]
    },
    "properties": {
    "id":"SOLAR_991",
    "label":"臺北市北投區逸仙國民小學"
    }
  },
  {
    "type": "Feature",
    "geometry": {
       "type": "Point",
       "coordinates":  [ 121.549934,25.018562 ]
    },
    "properties": {
    "id":"SOLAR_874",
    "label":"臺北市立芳和實驗國民中學"
    }
  },
  {
    "type": "Feature",
    "geometry": {
       "type": "Point",
       "coordinates":  [ 121.5583,25.02947 ]
    },
    "properties": {
    "id":"SOLAR_1026",
    "label":"臺北市信義區三興國民小學"
    }
  },
  {
    "type": "Feature",
    "geometry": {
       "type": "Point",
       "coordinates":  [ 121.5166,25.0946 ]
    },
    "properties": {
    "id":"SOLAR_71",
    "label":"臺北市立士林高級商業職業學校"
    }
  },
  {
    "type": "Feature",
    "geometry": {
       "type": "Point",
       "coordinates":  [ 121.51623,25.09465 ]
    },
    "properties": {
    "id":"SOLAR_992",
    "label":"臺北市立士林高級商業職業學校"
    }
  },
  {
    "type": "Feature",
    "geometry": {
       "type": "Point",
       "coordinates":  [ 121.522644,25.093493 ]
    },
    "properties": {
    "id":"SOLAR_865",
    "label":"臺北市立士林國民中學"
    }
  },
  {
    "type": "Feature",
    "geometry": {
       "type": "Point",
       "coordinates":  [ 121.522644,25.093493 ]
    },
    "properties": {
    "id":"SOLAR_993",
    "label":"臺北市立士林國民中學"
    }
  },
  {
    "type": "Feature",
    "geometry": {
       "type": "Point",
       "coordinates":  [ 121.51653,25.10441 ]
    },
    "properties": {
    "id":"SOLAR_994",
    "label":"臺北市立中正高級中學"
    }
  },
  {
    "type": "Feature",
    "geometry": {
       "type": "Point",
       "coordinates":  [ 121.51653,25.10441 ]
    },
    "properties": {
    "id":"SOLAR_995",
    "label":"臺北市立中正高級中學"
    }
  },
  {
    "type": "Feature",
    "geometry": {
       "type": "Point",
       "coordinates":  [ 121.5753,25.07942 ]
    },
    "properties": {
    "id":"SOLAR_111",
    "label":"臺北市內湖高級工業職業學校"
    }
  },
  {
    "type": "Feature",
    "geometry": {
       "type": "Point",
       "coordinates":  [ 121.5887,25.07704 ]
    },
    "properties": {
    "id":"SOLAR_20",
    "label":"臺北市內湖國民中學"
    }
  },
  {
    "type": "Feature",
    "geometry": {
       "type": "Point",
       "coordinates":  [ 121.5615,25.04912 ]
    },
    "properties": {
    "id":"SOLAR_996",
    "label":"臺北市立中崙高級中學"
    }
  },
  {
    "type": "Feature",
    "geometry": {
       "type": "Point",
       "coordinates":  [ 121.50022,25.13431 ]
    },
    "properties": {
    "id":"SOLAR_656",
    "label":"臺北市北投區北投國民小學"
    }
  },
  {
    "type": "Feature",
    "geometry": {
       "type": "Point",
       "coordinates":  [ 121.5122,25.03092 ]
    },
    "properties": {
    "id":"SOLAR_875",
    "label":"臺北市立建國高級中學"
    }
  },
  {
    "type": "Feature",
    "geometry": {
       "type": "Point",
       "coordinates":  [ 121.6073,25.05634 ]
    },
    "properties": {
    "id":"SOLAR_880",
    "label":"臺北市立南港高級工業職業學校"
    }
  },
  {
    "type": "Feature",
    "geometry": {
       "type": "Point",
       "coordinates":  [ 121.5508,25.0374 ]
    },
    "properties": {
    "id":"SOLAR_997",
    "label":"臺北市立仁愛國民中學"
    }
  },
  {
    "type": "Feature",
    "geometry": {
       "type": "Point",
       "coordinates":  [ 121.556335,25.056822 ]
    },
    "properties": {
    "id":"SOLAR_998",
    "label":"臺北市立介壽國民中學"
    }
  },
  {
    "type": "Feature",
    "geometry": {
       "type": "Point",
       "coordinates":  [ 121.53318,25.0312 ]
    },
    "properties": {
    "id":"SOLAR_888",
    "label":"臺北市立金華國民中學"
    }
  },
  {
    "type": "Feature",
    "geometry": {
       "type": "Point",
       "coordinates":  [ 121.6073,25.05634 ]
    },
    "properties": {
    "id":"SOLAR_881",
    "label":"臺北市立南港高級工業職業學校"
    }
  },
  {
    "type": "Feature",
    "geometry": {
       "type": "Point",
       "coordinates":  [ 121.6073,25.05634 ]
    },
    "properties": {
    "id":"SOLAR_882",
    "label":"臺北市立南港高級工業職業學校"
    }
  },
  {
    "type": "Feature",
    "geometry": {
       "type": "Point",
       "coordinates":  [ 121.5428,25.0124 ]
    },
    "properties": {
    "id":"SOLAR_76",
    "label":"臺北市大安區公館國民小學"
    }
  },
  {
    "type": "Feature",
    "geometry": {
       "type": "Point",
       "coordinates":  [ 121.61723,25.042389 ]
    },
    "properties": {
    "id":"SOLAR_17",
    "label":"臺北市南港區胡適國民小學"
    }
  },
  {
    "type": "Feature",
    "geometry": {
       "type": "Point",
       "coordinates":  [ 121.5111,25.03032 ]
    },
    "properties": {
    "id":"SOLAR_1029",
    "label":"臺北市國語實驗國民小學"
    }
  },
  {
    "type": "Feature",
    "geometry": {
       "type": "Point",
       "coordinates":  [ 121.5027,25.03805 ]
    },
    "properties": {
    "id":"SOLAR_65",
    "label":"臺北市萬華區老松國民小學"
    }
  },
  {
    "type": "Feature",
    "geometry": {
       "type": "Point",
       "coordinates":  [ 121.4983,25.02711 ]
    },
    "properties": {
    "id":"SOLAR_92",
    "label":"臺北市萬華區西園國民小學"
    }
  },
  {
    "type": "Feature",
    "geometry": {
       "type": "Point",
       "coordinates":  [ 121.511,25.02501 ]
    },
    "properties": {
    "id":"SOLAR_15",
    "label":"臺北市古亭國民中學"
    }
  },
  {
    "type": "Feature",
    "geometry": {
       "type": "Point",
       "coordinates":  [ 121.49933,25.031933 ]
    },
    "properties": {
    "id":"SOLAR_1001",
    "label":"臺北市立古亭國民中學"
    }
  },
  {
    "type": "Feature",
    "geometry": {
       "type": "Point",
       "coordinates":  [ 121.5289,25.020788 ]
    },
    "properties": {
    "id":"SOLAR_876",
    "label":"臺北市大安區古亭國民小學"
    }
  },
  {
    "type": "Feature",
    "geometry": {
       "type": "Point",
       "coordinates":  [ 121.54113,25.078262 ]
    },
    "properties": {
    "id":"SOLAR_1002",
    "label":"臺北市立北安國民中學"
    }
  },
  {
    "type": "Feature",
    "geometry": {
       "type": "Point",
       "coordinates":  [ 121.49646,25.13735 ]
    },
    "properties": {
    "id":"SOLAR_678",
    "label":"臺北市北投區文化國民小學"
    }
  },
  {
    "type": "Feature",
    "geometry": {
       "type": "Point",
       "coordinates":  [ 121.504616,25.036077 ]
    },
    "properties": {
    "id":"SOLAR_1031",
    "label":"臺北市立龍山國民中學"
    }
  },
  {
    "type": "Feature",
    "geometry": {
       "type": "Point",
       "coordinates":  [ 121.5601,25.08614 ]
    },
    "properties": {
    "id":"SOLAR_98",
    "label":"臺北市內湖區文湖國民小學"
    }
  },
  {
    "type": "Feature",
    "geometry": {
       "type": "Point",
       "coordinates":  [ 121.57847,25.03286 ]
    },
    "properties": {
    "id":"SOLAR_677",
    "label":"臺北市立永春高級中學"
    }
  },
  {
    "type": "Feature",
    "geometry": {
       "type": "Point",
       "coordinates":  [ 121.50229,25.14233 ]
    },
    "properties": {
    "id":"SOLAR_731",
    "label":"臺北市立復興高級中學"
    }
  },
  {
    "type": "Feature",
    "geometry": {
       "type": "Point",
       "coordinates":  [ 121.54316,25.03143 ]
    },
    "properties": {
    "id":"SOLAR_694",
    "label":"臺北市立大安高級工業職業學校"
    }
  },
  {
    "type": "Feature",
    "geometry": {
       "type": "Point",
       "coordinates":  [ 121.58656,25.078388 ]
    },
    "properties": {
    "id":"SOLAR_999",
    "label":"臺北市立內湖高級中學"
    }
  },
  {
    "type": "Feature",
    "geometry": {
       "type": "Point",
       "coordinates":  [ 121.57211,24.99696 ]
    },
    "properties": {
    "id":"SOLAR_692",
    "label":"臺北市立木柵高級工業職業學校"
    }
  },
  {
    "type": "Feature",
    "geometry": {
       "type": "Point",
       "coordinates":  [ 121.50716,25.08409 ]
    },
    "properties": {
    "id":"SOLAR_673",
    "label":"臺北市士林區葫蘆國民小學"
    }
  },
  {
    "type": "Feature",
    "geometry": {
       "type": "Point",
       "coordinates":  [ 121.55003,25.01995 ]
    },
    "properties": {
    "id":"SOLAR_877",
    "label":"臺北市大安區大安國民小學"
    }
  },
  {
    "type": "Feature",
    "geometry": {
       "type": "Point",
       "coordinates":  [ 121.61068,25.07112 ]
    },
    "properties": {
    "id":"SOLAR_701",
    "label":"臺北市內湖區明湖國民小學"
    }
  },
  {
    "type": "Feature",
    "geometry": {
       "type": "Point",
       "coordinates":  [ 121.5887,25.07704 ]
    },
    "properties": {
    "id":"SOLAR_1000",
    "label":"臺北市立內湖國民中學"
    }
  },
  {
    "type": "Feature",
    "geometry": {
       "type": "Point",
       "coordinates":  [ 121.56108,24.98096 ]
    },
    "properties": {
    "id":"SOLAR_699",
    "label":"臺北市文山區力行國民小學"
    }
  },
  {
    "type": "Feature",
    "geometry": {
       "type": "Point",
       "coordinates":  [ 121.51352,25.07532 ]
    },
    "properties": {
    "id":"SOLAR_675",
    "label":"臺北市立啟聰學校"
    }
  },
  {
    "type": "Feature",
    "geometry": {
       "type": "Point",
       "coordinates":  [ 121.55602,24.98072 ]
    },
    "properties": {
    "id":"SOLAR_698",
    "label":"臺北市立景美女子高級中學"
    }
  },
  {
    "type": "Feature",
    "geometry": {
       "type": "Point",
       "coordinates":  [ 121.54426,24.99627 ]
    },
    "properties": {
    "id":"SOLAR_696",
    "label":"臺北市立景興國民中學"
    }
  },
  {
    "type": "Feature",
    "geometry": {
       "type": "Point",
       "coordinates":  [ 121.54974,25.00491 ]
    },
    "properties": {
    "id":"SOLAR_697",
    "label":"臺北市立興福國民中學"
    }
  },
  {
    "type": "Feature",
    "geometry": {
       "type": "Point",
       "coordinates":  [ 121.49274,25.02757 ]
    },
    "properties": {
    "id":"SOLAR_690",
    "label":"臺北市立雙園國民中學"
    }
  },
  {
    "type": "Feature",
    "geometry": {
       "type": "Point",
       "coordinates":  [ 121.58686,25.04711 ]
    },
    "properties": {
    "id":"SOLAR_702",
    "label":"臺北市南港區成德國民小學"
    }
  },
  {
    "type": "Feature",
    "geometry": {
       "type": "Point",
       "coordinates":  [ 121.5111,25.03032 ]
    },
    "properties": {
    "id":"SOLAR_674",
    "label":"臺北市國語實驗國民小學"
    }
  },
  {
    "type": "Feature",
    "geometry": {
       "type": "Point",
       "coordinates":  [ 121.51445,25.064 ]
    },
    "properties": {
    "id":"SOLAR_1003",
    "label":"臺北市立民權國民中學"
    }
  },
  {
    "type": "Feature",
    "geometry": {
       "type": "Point",
       "coordinates":  [ 121.558914,25.000626 ]
    },
    "properties": {
    "id":"SOLAR_878",
    "label":"臺北市立萬芳高級中學"
    }
  },
  {
    "type": "Feature",
    "geometry": {
       "type": "Point",
       "coordinates":  [ 121.50911,25.03516 ]
    },
    "properties": {
    "id":"SOLAR_671",
    "label":"臺北市中正區南門國民小學"
    }
  },
  {
    "type": "Feature",
    "geometry": {
       "type": "Point",
       "coordinates":  [ 121.51445,25.063808 ]
    },
    "properties": {
    "id":"SOLAR_1004",
    "label":"臺北市立民權國民中學"
    }
  },
  {
    "type": "Feature",
    "geometry": {
       "type": "Point",
       "coordinates":  [ 121.46617,25.12635 ]
    },
    "properties": {
    "id":"SOLAR_721",
    "label":"臺北市北投區關渡國民小學"
    }
  },
  {
    "type": "Feature",
    "geometry": {
       "type": "Point",
       "coordinates":  [ 121.5296,25.09869 ]
    },
    "properties": {
    "id":"SOLAR_732",
    "label":"臺北市士林區福林國民小學"
    }
  },
  {
    "type": "Feature",
    "geometry": {
       "type": "Point",
       "coordinates":  [ 121.57962,25.12 ]
    },
    "properties": {
    "id":"SOLAR_727",
    "label":"臺北市溪山實驗國民小學"
    }
  },
  {
    "type": "Feature",
    "geometry": {
       "type": "Point",
       "coordinates":  [ 121.51571,25.05637 ]
    },
    "properties": {
    "id":"SOLAR_722",
    "label":"臺北市大同區蓬萊國民小學"
    }
  },
  {
    "type": "Feature",
    "geometry": {
       "type": "Point",
       "coordinates":  [ 121.54552,25.06066 ]
    },
    "properties": {
    "id":"SOLAR_724",
    "label":"臺北市立中山國民中學"
    }
  },
  {
    "type": "Feature",
    "geometry": {
       "type": "Point",
       "coordinates":  [ 121.49129,25.03407 ]
    },
    "properties": {
    "id":"SOLAR_729",
    "label":"臺北市萬華區華江國民小學(二)"
    }
  },
  {
    "type": "Feature",
    "geometry": {
       "type": "Point",
       "coordinates":  [ 121.50867,25.04699 ]
    },
    "properties": {
    "id":"SOLAR_720",
    "label":"臺北市萬華區福星國民小學"
    }
  },
  {
    "type": "Feature",
    "geometry": {
       "type": "Point",
       "coordinates":  [ 121.54323,25.0637 ]
    },
    "properties": {
    "id":"SOLAR_706",
    "label":"臺北市立五常國民中學"
    }
  },
  {
    "type": "Feature",
    "geometry": {
       "type": "Point",
       "coordinates":  [ 121.52753,25.11976 ]
    },
    "properties": {
    "id":"SOLAR_725",
    "label":"臺北市士林區天母國民小學"
    }
  },
  {
    "type": "Feature",
    "geometry": {
       "type": "Point",
       "coordinates":  [ 121.5578,25.040144 ]
    },
    "properties": {
    "id":"SOLAR_885",
    "label":"臺北市信義區光復國民小學"
    }
  },
  {
    "type": "Feature",
    "geometry": {
       "type": "Point",
       "coordinates":  [ 121.50884,25.046812 ]
    },
    "properties": {
    "id":"SOLAR_51",
    "label":"臺北市萬華區福星國民小學(二)"
    }
  },
  {
    "type": "Feature",
    "geometry": {
       "type": "Point",
       "coordinates":  [ 121.5503,25.01875 ]
    },
    "properties": {
    "id":"SOLAR_883",
    "label":"臺北市立芳和實驗國民中學"
    }
  },
  {
    "type": "Feature",
    "geometry": {
       "type": "Point",
       "coordinates":  [ 121.602135,25.056198 ]
    },
    "properties": {
    "id":"SOLAR_816",
    "label":"臺北市南港區東新國民小學"
    }
  },
  {
    "type": "Feature",
    "geometry": {
       "type": "Point",
       "coordinates":  [ 121.56764,24.98741 ]
    },
    "properties": {
    "id":"SOLAR_815",
    "label":"臺北市立木柵國民中學"
    }
  },
  {
    "type": "Feature",
    "geometry": {
       "type": "Point",
       "coordinates":  [ 121.56318,25.031567 ]
    },
    "properties": {
    "id":"SOLAR_887",
    "label":"臺北市信義區信義國民小學"
    }
  },
  {
    "type": "Feature",
    "geometry": {
       "type": "Point",
       "coordinates":  [ 121.61939,25.03986 ]
    },
    "properties": {
    "id":"SOLAR_817",
    "label":"臺北市南港區舊莊國民小學"
    }
  },
  {
    "type": "Feature",
    "geometry": {
       "type": "Point",
       "coordinates":  [ 121.5805,25.03502 ]
    },
    "properties": {
    "id":"SOLAR_67",
    "label":"臺北市立松山高級商業家事職業學校"
    }
  },
  {
    "type": "Feature",
    "geometry": {
       "type": "Point",
       "coordinates":  [ 121.54522,25.130901 ]
    },
    "properties": {
    "id":"SOLAR_1015",
    "label":"臺北市立格致國民中學"
    }
  },
  {
    "type": "Feature",
    "geometry": {
       "type": "Point",
       "coordinates":  [ 121.6113,25.06819 ]
    },
    "properties": {
    "id":"SOLAR_889",
    "label":"臺北市內湖區南湖國民小學"
    }
  },
  {
    "type": "Feature",
    "geometry": {
       "type": "Point",
       "coordinates":  [ 121.5076,25.1381 ]
    },
    "properties": {
    "id":"SOLAR_77",
    "label":"臺北市立新民國民中學"
    }
  },
  {
    "type": "Feature",
    "geometry": {
       "type": "Point",
       "coordinates":  [ 121.504616,25.036077 ]
    },
    "properties": {
    "id":"SOLAR_48",
    "label":"臺北市立龍山國民中學"
    }
  },
  {
    "type": "Feature",
    "geometry": {
       "type": "Point",
       "coordinates":  [ 121.57299,25.048723 ]
    },
    "properties": {
    "id":"SOLAR_1005",
    "label":"臺北市立永吉國民中學"
    }
  },
  {
    "type": "Feature",
    "geometry": {
       "type": "Point",
       "coordinates":  [ 121.514175,25.114983 ]
    },
    "properties": {
    "id":"SOLAR_1006",
    "label":"臺北市立石牌國民中學"
    }
  },
  {
    "type": "Feature",
    "geometry": {
       "type": "Point",
       "coordinates":  [ 121.6106,25.07062 ]
    },
    "properties": {
    "id":"SOLAR_41",
    "label":"臺北市立明湖國民中學"
    }
  },
  {
    "type": "Feature",
    "geometry": {
       "type": "Point",
       "coordinates":  [ 121.5651,25.0435 ]
    },
    "properties": {
    "id":"SOLAR_107",
    "label":"臺北市立松山高級中學"
    }
  },
  {
    "type": "Feature",
    "geometry": {
       "type": "Point",
       "coordinates":  [ 121.5632,25.03157 ]
    },
    "properties": {
    "id":"SOLAR_88",
    "label":"臺北市信義區信義國民小學"
    }
  },
  {
    "type": "Feature",
    "geometry": {
       "type": "Point",
       "coordinates":  [ 121.577896,25.084118 ]
    },
    "properties": {
    "id":"SOLAR_897",
    "label":"臺北市立麗山高級中學"
    }
  },
  {
    "type": "Feature",
    "geometry": {
       "type": "Point",
       "coordinates":  [ 121.6011,25.08777 ]
    },
    "properties": {
    "id":"SOLAR_62",
    "label":"臺北市內湖區大湖國民小學"
    }
  },
  {
    "type": "Feature",
    "geometry": {
       "type": "Point",
       "coordinates":  [ 121.50206,25.09049 ]
    },
    "properties": {
    "id":"SOLAR_728",
    "label":"臺北市士林區社子國民小學"
    }
  },
  {
    "type": "Feature",
    "geometry": {
       "type": "Point",
       "coordinates":  [ 121.5722,25.03642 ]
    },
    "properties": {
    "id":"SOLAR_893",
    "label":"臺北市興雅國民中學"
    }
  },
  {
    "type": "Feature",
    "geometry": {
       "type": "Point",
       "coordinates":  [ 121.52296,25.07986 ]
    },
    "properties": {
    "id":"SOLAR_679",
    "label":"臺北市士林區劍潭國民小學"
    }
  },
  {
    "type": "Feature",
    "geometry": {
       "type": "Point",
       "coordinates":  [ 121.5289,25.020788 ]
    },
    "properties": {
    "id":"SOLAR_647",
    "label":"臺北市大安區古亭國民小學"
    }
  },
  {
    "type": "Feature",
    "geometry": {
       "type": "Point",
       "coordinates":  [ 121.53488,25.023922 ]
    },
    "properties": {
    "id":"SOLAR_894",
    "label":"臺北市大安區龍安國民小學"
    }
  },
  {
    "type": "Feature",
    "geometry": {
       "type": "Point",
       "coordinates":  [ 121.5152,25.03607 ]
    },
    "properties": {
    "id":"SOLAR_86",
    "label":"臺北市立大學附設實驗國民小學"
    }
  },
  {
    "type": "Feature",
    "geometry": {
       "type": "Point",
       "coordinates":  [ 121.57223,25.0364 ]
    },
    "properties": {
    "id":"SOLAR_898",
    "label":"臺北市立興雅國民中學"
    }
  },
  {
    "type": "Feature",
    "geometry": {
       "type": "Point",
       "coordinates":  [ 121.54039,25.0039 ]
    },
    "properties": {
    "id":"SOLAR_700",
    "label":"臺北市文山區武功國民小學"
    }
  },
  {
    "type": "Feature",
    "geometry": {
       "type": "Point",
       "coordinates":  [ 121.535,25.1167 ]
    },
    "properties": {
    "id":"SOLAR_106",
    "label":"臺北市立啟明學校"
    }
  },
  {
    "type": "Feature",
    "geometry": {
       "type": "Point",
       "coordinates":  [ 121.53667,25.00489 ]
    },
    "properties": {
    "id":"SOLAR_693",
    "label":"臺北市文山區萬福國民小學"
    }
  },
  {
    "type": "Feature",
    "geometry": {
       "type": "Point",
       "coordinates":  [ 121.6105,25.06646 ]
    },
    "properties": {
    "id":"SOLAR_899",
    "label":"臺北市立南湖高級中學"
    }
  },
  {
    "type": "Feature",
    "geometry": {
       "type": "Point",
       "coordinates":  [ 121.51623,25.09465 ]
    },
    "properties": {
    "id":"SOLAR_705",
    "label":"臺北市立士林高級商業職業學校"
    }
  },
  {
    "type": "Feature",
    "geometry": {
       "type": "Point",
       "coordinates":  [ 121.492546,25.027756 ]
    },
    "properties": {
    "id":"SOLAR_896",
    "label":"臺北市立雙園國民中學"
    }
  },
  {
    "type": "Feature",
    "geometry": {
       "type": "Point",
       "coordinates":  [ 121.5885,25.06823 ]
    },
    "properties": {
    "id":"SOLAR_968",
    "label":"臺北市內湖區新湖國民小學"
    }
  },
  {
    "type": "Feature",
    "geometry": {
       "type": "Point",
       "coordinates":  [ 121.5657,25.08383 ]
    },
    "properties": {
    "id":"SOLAR_1007",
    "label":"臺北市立西湖國民中學"
    }
  },
  {
    "type": "Feature",
    "geometry": {
       "type": "Point",
       "coordinates":  [ 121.519,25.0762 ]
    },
    "properties": {
    "id":"SOLAR_1010",
    "label":"臺北市立明倫高級中學"
    }
  },
  {
    "type": "Feature",
    "geometry": {
       "type": "Point",
       "coordinates":  [ 121.55883,25.00058 ]
    },
    "properties": {
    "id":"SOLAR_689",
    "label":"臺北市立萬芳高級中學"
    }
  },
  {
    "type": "Feature",
    "geometry": {
       "type": "Point",
       "coordinates":  [ 121.50396,25.04257 ]
    },
    "properties": {
    "id":"SOLAR_575",
    "label":"臺北市萬華區西門國民小學"
    }
  },
  {
    "type": "Feature",
    "geometry": {
       "type": "Point",
       "coordinates":  [ 121.50022,25.13431 ]
    },
    "properties": {
    "id":"SOLAR_900",
    "label":"臺北市北投區北投國民小學"
    }
  },
  {
    "type": "Feature",
    "geometry": {
       "type": "Point",
       "coordinates":  [ 121.51345,25.064335 ]
    },
    "properties": {
    "id":"SOLAR_964",
    "label":"臺北市大同區大橋國民小學"
    }
  },
  {
    "type": "Feature",
    "geometry": {
       "type": "Point",
       "coordinates":  [ 25.1167,121.5 ]
    },
    "properties": {
    "id":"SOLAR_966",
    "label":"臺北市北投區泉源國民小學"
    }
  },
  {
    "type": "Feature",
    "geometry": {
       "type": "Point",
       "coordinates":  [ 25.1167,121.5 ]
    },
    "properties": {
    "id":"SOLAR_967",
    "label":"臺北市北投區泉源國民小學"
    }
  },
  {
    "type": "Feature",
    "geometry": {
       "type": "Point",
       "coordinates":  [ 121.5556,25.10364 ]
    },
    "properties": {
    "id":"SOLAR_965",
    "label":"臺北市立至善國民中學"
    }
  },
  {
    "type": "Feature",
    "geometry": {
       "type": "Point",
       "coordinates":  [ 121.53159,25.11069 ]
    },
    "properties": {
    "id":"SOLAR_672",
    "label":"臺北市立蘭雅國民中學"
    }
  },
  {
    "type": "Feature",
    "geometry": {
       "type": "Point",
       "coordinates":  [ 121.6106,25.07062 ]
    },
    "properties": {
    "id":"SOLAR_1011",
    "label":"臺北市立明湖國民中學"
    }
  },
  {
    "type": "Feature",
    "geometry": {
       "type": "Point",
       "coordinates":  [ 121.549934,25.018562 ]
    },
    "properties": {
    "id":"SOLAR_1012",
    "label":"臺北市立芳和實驗國民中學"
    }
  },
  {
    "type": "Feature",
    "geometry": {
       "type": "Point",
       "coordinates":  [ 121.6073,25.05634 ]
    },
    "properties": {
    "id":"SOLAR_1013",
    "label":"臺北市立南港高級工業職業學校"
    }
  },
  {
    "type": "Feature",
    "geometry": {
       "type": "Point",
       "coordinates":  [ 121.4881,25.10285 ]
    },
    "properties": {
    "id":"SOLAR_90",
    "label":"臺北市立福安國民中學"
    }
  },
  {
    "type": "Feature",
    "geometry": {
       "type": "Point",
       "coordinates":  [ 121.54672,25.051256 ]
    },
    "properties": {
    "id":"SOLAR_901",
    "label":"臺北市立敦化國民中學"
    }
  },
  {
    "type": "Feature",
    "geometry": {
       "type": "Point",
       "coordinates":  [ 121.6011,25.08777 ]
    },
    "properties": {
    "id":"SOLAR_969",
    "label":"臺北市內湖區大湖國民小學"
    }
  },
  {
    "type": "Feature",
    "geometry": {
       "type": "Point",
       "coordinates":  [ 121.53734,25.117947 ]
    },
    "properties": {
    "id":"SOLAR_970",
    "label":"臺北市士林區三玉國民小學"
    }
  },
  {
    "type": "Feature",
    "geometry": {
       "type": "Point",
       "coordinates":  [ 121.519,25.0762 ]
    },
    "properties": {
    "id":"SOLAR_1008",
    "label":"臺北市立明倫高級中學"
    }
  },
  {
    "type": "Feature",
    "geometry": {
       "type": "Point",
       "coordinates":  [ 121.60807,25.056051 ]
    },
    "properties": {
    "id":"SOLAR_1014",
    "label":"臺北市立南港高級中學"
    }
  },
  {
    "type": "Feature",
    "geometry": {
       "type": "Point",
       "coordinates":  [ 121.51676,25.06955 ]
    },
    "properties": {
    "id":"SOLAR_1196",
    "label":"臺北市立蘭州國民中學"
    }
  },
  {
    "type": "Feature",
    "geometry": {
       "type": "Point",
       "coordinates":  [ 121.5353,25.05522 ]
    },
    "properties": {
    "id":"SOLAR_110",
    "label":"臺北市立大同高級中學"
    }
  },
  {
    "type": "Feature",
    "geometry": {
       "type": "Point",
       "coordinates":  [ 121.4912,25.03086 ]
    },
    "properties": {
    "id":"SOLAR_104",
    "label":"臺北市立大理高級中學"
    }
  },
  {
    "type": "Feature",
    "geometry": {
       "type": "Point",
       "coordinates":  [ 121.54427,25.013342 ]
    },
    "properties": {
    "id":"SOLAR_260",
    "label":"國立臺灣大學"
    }
  },
  {
    "type": "Feature",
    "geometry": {
       "type": "Point",
       "coordinates":  [ 121.51631,25.03891 ]
    },
    "properties": {
    "id":"SOLAR_621",
    "label":"外交部"
    }
  },
  {
    "type": "Feature",
    "geometry": {
       "type": "Point",
       "coordinates":  [ 121.6121,25.04263 ]
    },
    "properties": {
    "id":"SOLAR_620",
    "label":"中央研究院"
    }
  },
  {
    "type": "Feature",
    "geometry": {
       "type": "Point",
       "coordinates":  [ 121.52847,25.02717 ]
    },
    "properties": {
    "id":"SOLAR_237",
    "label":"國立臺灣師範大學"
    }
  },
  {
    "type": "Feature",
    "geometry": {
       "type": "Point",
       "coordinates":  [ 121.50941,25.030148 ]
    },
    "properties": {
    "id":"SOLAR_235",
    "label":"行政院農業委員會"
    }
  },
  {
    "type": "Feature",
    "geometry": {
       "type": "Point",
       "coordinates":  [ 121.507645,25.038515 ]
    },
    "properties": {
    "id":"SOLAR_227",
    "label":"環境部"
    }
  },
  {
    "type": "Feature",
    "geometry": {
       "type": "Point",
       "coordinates":  [ 121.59243,25.071646 ]
    },
    "properties": {
    "id":"SOLAR_245",
    "label":"國防醫學院三軍總醫院"
    }
  },
  {
    "type": "Feature",
    "geometry": {
       "type": "Point",
       "coordinates":  [ 121.53339,25.4358 ]
    },
    "properties": {
    "id":"SOLAR_1048",
    "label":"國立臺北科技大學"
    }
  },
  {
    "type": "Feature",
    "geometry": {
       "type": "Point",
       "coordinates":  [ 121.597305,25.048637 ]
    },
    "properties": {
    "id":"SOLAR_254",
    "label":"國防部軍備局"
    }
  },
  {
    "type": "Feature",
    "geometry": {
       "type": "Point",
       "coordinates":  [ 121.52554,254209.0 ]
    },
    "properties": {
    "id":"SOLAR_1049",
    "label":"國立臺北商業大學"
    }
  },
  {
    "type": "Feature",
    "geometry": {
       "type": "Point",
       "coordinates":  [ 121.52554,25.52554 ]
    },
    "properties": {
    "id":"SOLAR_1050",
    "label":"國立臺北商業大學"
    }
  },
  {
    "type": "Feature",
    "geometry": {
       "type": "Point",
       "coordinates":  [ 121.54276,25.1302 ]
    },
    "properties": {
    "id":"SOLAR_1061",
    "label":"國立臺灣科技大學"
    }
  },
  {
    "type": "Feature",
    "geometry": {
       "type": "Point",
       "coordinates":  [ 121.59244,25.07187 ]
    },
    "properties": {
    "id":"SOLAR_517",
    "label":"國防醫學院三軍總醫院"
    }
  },
  {
    "type": "Feature",
    "geometry": {
       "type": "Point",
       "coordinates":  [ 121.4667,25.1321 ]
    },
    "properties": {
    "id":"SOLAR_522",
    "label":"國立臺北藝術大學"
    }
  },
  {
    "type": "Feature",
    "geometry": {
       "type": "Point",
       "coordinates":  [ 121.5405,25.0133 ]
    },
    "properties": {
    "id":"SOLAR_520",
    "label":"國立臺灣科技大學"
    }
  },
  {
    "type": "Feature",
    "geometry": {
       "type": "Point",
       "coordinates":  [ 121.61626,25.042368 ]
    },
    "properties": {
    "id":"SOLAR_558",
    "label":"中央研究院"
    }
  },
  {
    "type": "Feature",
    "geometry": {
       "type": "Point",
       "coordinates":  [ 121.6118,25.0411 ]
    },
    "properties": {
    "id":"SOLAR_521",
    "label":"中央研究院"
    }
  },
  {
    "type": "Feature",
    "geometry": {
       "type": "Point",
       "coordinates":  [ 121.613945,25.05225 ]
    },
    "properties": {
    "id":"SOLAR_246",
    "label":"國家文官學院"
    }
  },
  {
    "type": "Feature",
    "geometry": {
       "type": "Point",
       "coordinates":  [ 121.523506,25.036203 ]
    },
    "properties": {
    "id":"SOLAR_481",
    "label":"中華電信股份有限公司"
    }
  },
  {
    "type": "Feature",
    "geometry": {
       "type": "Point",
       "coordinates":  [ 121.4667,25.1321 ]
    },
    "properties": {
    "id":"SOLAR_524",
    "label":"國立臺北藝術大學"
    }
  },
  {
    "type": "Feature",
    "geometry": {
       "type": "Point",
       "coordinates":  [ 121.4667,25.1321 ]
    },
    "properties": {
    "id":"SOLAR_523",
    "label":"國立臺北藝術大學"
    }
  },
  {
    "type": "Feature",
    "geometry": {
       "type": "Point",
       "coordinates":  [ 121.5211,25.1185 ]
    },
    "properties": {
    "id":"SOLAR_525",
    "label":"國立臺北護理健康大學"
    }
  },
  {
    "type": "Feature",
    "geometry": {
       "type": "Point",
       "coordinates":  [ 121.54141,25.000069 ]
    },
    "properties": {
    "id":"SOLAR_1072",
    "label":"臺灣電力股份有限公司"
    }
  },
  {
    "type": "Feature",
    "geometry": {
       "type": "Point",
       "coordinates":  [ 121.5211,25.1185 ]
    },
    "properties": {
    "id":"SOLAR_527",
    "label":"國立臺北護理健康大學"
    }
  },
  {
    "type": "Feature",
    "geometry": {
       "type": "Point",
       "coordinates":  [ 121.61282,25.04281 ]
    },
    "properties": {
    "id":"SOLAR_592",
    "label":"臺灣電力股份有限公司"
    }
  },
  {
    "type": "Feature",
    "geometry": {
       "type": "Point",
       "coordinates":  [ 121.54442,25.049515 ]
    },
    "properties": {
    "id":"SOLAR_264",
    "label":"台灣中油股份有限公司"
    }
  },
  {
    "type": "Feature",
    "geometry": {
       "type": "Point",
       "coordinates":  [ 121.5211,25.1185 ]
    },
    "properties": {
    "id":"SOLAR_526",
    "label":"國立臺北護理健康大學"
    }
  },
  {
    "type": "Feature",
    "geometry": {
       "type": "Point",
       "coordinates":  [ 121.55696,25.00538 ]
    },
    "properties": {
    "id":"SOLAR_490",
    "label":"國立臺灣科技大學"
    }
  },
  {
    "type": "Feature",
    "geometry": {
       "type": "Point",
       "coordinates":  [ 121.54056,25.013258 ]
    },
    "properties": {
    "id":"SOLAR_491",
    "label":"國立臺灣科技大學"
    }
  },
  {
    "type": "Feature",
    "geometry": {
       "type": "Point",
       "coordinates":  [ 121.55779,24.99584 ]
    },
    "properties": {
    "id":"SOLAR_623",
    "label":"海洋委員會海巡署"
    }
  },
  {
    "type": "Feature",
    "geometry": {
       "type": "Point",
       "coordinates":  [ 121.6121,25.04263 ]
    },
    "properties": {
    "id":"SOLAR_478",
    "label":"中央研究院"
    }
  },
  {
    "type": "Feature",
    "geometry": {
       "type": "Point",
       "coordinates":  [ 121.564926,25.081335 ]
    },
    "properties": {
    "id":"SOLAR_586",
    "label":"臺灣電力股份有限公司"
    }
  },
  {
    "type": "Feature",
    "geometry": {
       "type": "Point",
       "coordinates":  [ 121.53997,25.012566 ]
    },
    "properties": {
    "id":"SOLAR_589",
    "label":"臺灣電力股份有限公司"
    }
  },
  {
    "type": "Feature",
    "geometry": {
       "type": "Point",
       "coordinates":  [ 121.61282,25.04281 ]
    },
    "properties": {
    "id":"SOLAR_594",
    "label":"中央研究院"
    }
  },
  {
    "type": "Feature",
    "geometry": {
       "type": "Point",
       "coordinates":  [ 121.59596,25.054104 ]
    },
    "properties": {
    "id":"SOLAR_587",
    "label":"臺灣電力股份有限公司"
    }
  },
  {
    "type": "Feature",
    "geometry": {
       "type": "Point",
       "coordinates":  [ 121.51723,25.119606 ]
    },
    "properties": {
    "id":"SOLAR_596",
    "label":"內政部警政署保安警察第一總隊"
    }
  },
  {
    "type": "Feature",
    "geometry": {
       "type": "Point",
       "coordinates":  [ 121.51723,25.119606 ]
    },
    "properties": {
    "id":"SOLAR_595",
    "label":"內政部警政署保安警察第一總隊"
    }
  },
  {
    "type": "Feature",
    "geometry": {
       "type": "Point",
       "coordinates":  [ 121.54625,25.0626 ]
    },
    "properties": {
    "id":"SOLAR_588",
    "label":"臺灣電力股份有限公司"
    }
  },
  {
    "type": "Feature",
    "geometry": {
       "type": "Point",
       "coordinates":  [ 121.472275,25.123972 ]
    },
    "properties": {
    "id":"SOLAR_590",
    "label":"臺灣電力股份有限公司"
    }
  },
  {
    "type": "Feature",
    "geometry": {
       "type": "Point",
       "coordinates":  [ 121.61631,25.039618 ]
    },
    "properties": {
    "id":"SOLAR_593",
    "label":"中央研究院"
    }
  },
  {
    "type": "Feature",
    "geometry": {
       "type": "Point",
       "coordinates":  [ 121.51423,25.122952 ]
    },
    "properties": {
    "id":"SOLAR_484",
    "label":"國立陽明交通大學"
    }
  },
  {
    "type": "Feature",
    "geometry": {
       "type": "Point",
       "coordinates":  [ 121.53836,25.021446 ]
    },
    "properties": {
    "id":"SOLAR_559",
    "label":"國立臺灣大學"
    }
  },
  {
    "type": "Feature",
    "geometry": {
       "type": "Point",
       "coordinates":  [ 121.523506,25.036203 ]
    },
    "properties": {
    "id":"SOLAR_480",
    "label":"中華電信股份有限公司"
    }
  },
  {
    "type": "Feature",
    "geometry": {
       "type": "Point",
       "coordinates":  [ 121.54013,25.01309 ]
    },
    "properties": {
    "id":"SOLAR_258",
    "label":"國立臺灣科技大學"
    }
  },
  {
    "type": "Feature",
    "geometry": {
       "type": "Point",
       "coordinates":  [ 121.53927,25.004698 ]
    },
    "properties": {
    "id":"SOLAR_482",
    "label":"台灣中油股份有限公司"
    }
  },
  {
    "type": "Feature",
    "geometry": {
       "type": "Point",
       "coordinates":  [ 121.54482,252499.0 ]
    },
    "properties": {
    "id":"SOLAR_1051",
    "label":"國立臺北教育大學附設實驗國民小學"
    }
  },
  {
    "type": "Feature",
    "geometry": {
       "type": "Point",
       "coordinates":  [ 121.4667,25.1321 ]
    },
    "properties": {
    "id":"SOLAR_1052",
    "label":"國立臺北藝術大學"
    }
  },
  {
    "type": "Feature",
    "geometry": {
       "type": "Point",
       "coordinates":  [ 121.5132,25.032068 ]
    },
    "properties": {
    "id":"SOLAR_234",
    "label":"行政院農業委員會"
    }
  },
  {
    "type": "Feature",
    "geometry": {
       "type": "Point",
       "coordinates":  [ 121.54013,25.01309 ]
    },
    "properties": {
    "id":"SOLAR_225",
    "label":"國立臺灣科技大學"
    }
  },
  {
    "type": "Feature",
    "geometry": {
       "type": "Point",
       "coordinates":  [ 121.51722,25.041985 ]
    },
    "properties": {
    "id":"SOLAR_1053",
    "label":"國立臺灣大學"
    }
  },
  {
    "type": "Feature",
    "geometry": {
       "type": "Point",
       "coordinates":  [ 121.53542,25.014067 ]
    },
    "properties": {
    "id":"SOLAR_1054",
    "label":"國立臺灣大學"
    }
  },
  {
    "type": "Feature",
    "geometry": {
       "type": "Point",
       "coordinates":  [ 121.5428,252015.0 ]
    },
    "properties": {
    "id":"SOLAR_1055",
    "label":"國立臺灣大學"
    }
  },
  {
    "type": "Feature",
    "geometry": {
       "type": "Point",
       "coordinates":  [ 121.5428,252015.0 ]
    },
    "properties": {
    "id":"SOLAR_1056",
    "label":"國立臺灣大學"
    }
  },
  {
    "type": "Feature",
    "geometry": {
       "type": "Point",
       "coordinates":  [ 121.5428,252015.0 ]
    },
    "properties": {
    "id":"SOLAR_1057",
    "label":"國立臺灣大學"
    }
  },
  {
    "type": "Feature",
    "geometry": {
       "type": "Point",
       "coordinates":  [ 121.5428,252015.0 ]
    },
    "properties": {
    "id":"SOLAR_1058",
    "label":"國立臺灣大學"
    }
  },
  {
    "type": "Feature",
    "geometry": {
       "type": "Point",
       "coordinates":  [ 121.52536,25.02025 ]
    },
    "properties": {
    "id":"SOLAR_249",
    "label":"台灣中油股份有限公司"
    }
  },
  {
    "type": "Feature",
    "geometry": {
       "type": "Point",
       "coordinates":  [ 121.61282,25.04281 ]
    },
    "properties": {
    "id":"SOLAR_1032",
    "label":"中央研究院"
    }
  },
  {
    "type": "Feature",
    "geometry": {
       "type": "Point",
       "coordinates":  [ 121.51423,25.122952 ]
    },
    "properties": {
    "id":"SOLAR_483",
    "label":"國立陽明交通大學"
    }
  },
  {
    "type": "Feature",
    "geometry": {
       "type": "Point",
       "coordinates":  [ 121.53959,25.012693 ]
    },
    "properties": {
    "id":"SOLAR_560",
    "label":"臺灣電力股份有限公司"
    }
  },
  {
    "type": "Feature",
    "geometry": {
       "type": "Point",
       "coordinates":  [ 12161696.0,25.04378 ]
    },
    "properties": {
    "id":"SOLAR_1033",
    "label":"中央研究院"
    }
  },